NO.;ID-Parque;Circunscripcion;Zona /Lote ;Nombre del Parque;Dirección;Enlace GoogleMap;Latitud;Longitud;Localidad o barrio;M2;Contenes;Aceras M2;Poblacion masculino;Poblacion Femenino;Poblacion Total;TIPO;Letrero-Principal;NORMAS GENERALES;RAMPA ACCESIBILIDAD;GAZEBO;CAPILLA;LUMINARIAS;BANCOS;MESA PICNIC;PAPELERAS;JUEGOS NIÑOS;MAQUINAS EJERCICIOS;LLAVE DE AGUA;TOMACORRIENTE;ARBOLADO EXISTENTE;NUEVAS ESPECIES ARBOLADO SEMBRADAS;SUPERFICIE AJARDINADA PERMEABLE;BANDERAS;REFLECTORES;Señalecticas;ESTATUAS;JARDINERAS;CANCHAS DEPORTIVAS;"CANCHAS
DEPORTIVAS SOCCER";TINACO;PARQUE CANINO;BAÑOS;PISTA DE BICICLETA;OFICINA;CONTENEDORES;CISTERNA;ALMACEN;MURALES;KARTING;MALLAS PERIMETRALES;BUHONEROS;NEGOCIOS;Fecha Inauguracion;DIA;MES;AÑO;ETAPAS;Circ.;Dif.;TIPO/ REMO;Condicion Actual;Fecha Ultimo Mantenimiento;Fecha Proximo Mantenimiento
1;ADN-P-1;C1;ZONA 06;PABELLON DE LAS NACIONES;AVE. JIMÉNEZ MOYA;https://goo.gl/maps/iTGxNPrLwzT8xAXf8;18.4468577;-69.9253714;CENTRO DE LOS HEROES;3854;452.69;905.38;30;35;65;Monumento;1;1;5;0;0;33;6;0;5;0;0;1;3;20;20;592.46;52;13;16;1;4;0;0;2;0;2;0;0;0;0;1;0;0;0;0;0;25/2/21;25;FEBRERO;2021;;1;1;Remozado;Optima condiciones;;
2;ADN-P-2;C1;ZONA 09;PARQUE ROSADO (PLAZA PELLERANO CASTRO);CALLE LAS DAMAS;https://goo.gl/maps/8aEZf1DgeVZY8Dsx5;18.4713273;-69.8836797;ZONA COLONIAL;1314.46;53.84;107.68;2489;3046;5535;Parque;1;0;2;0;0;6;7;0;4;3;0;0;0;13;13;0;0;3;24;1;9;0;0;0;0;0;0;0;0;0;0;0;0;0;0;0;21/4/21;21;ABRIL;2021;;1;1;Remozado;Optima condiciones;;
3;ADN-P-3;C1;ZONA 09;PARQUE CERVANTES;PASEO PRESIDENTE BILLINI ESQ ESTRELLETA;https://goo.gl/maps/GfnxNJM35GLiVtPd8;18.4671281;-69.8916709;CIUDAD NUEVA;2448.63;222.75;445.5;1419;1553;2972;Parque;0;0;0;0;0;7;32;0;9;0;0;0;0;24;24;363.4;0;1;3;2;1;0;0;0;0;0;0;0;0;0;0;0;0;0;0;0;14/4/21;14;ABRIL;2021;;1;1;Remozado;Optima condiciones;;
4;ADN-P-4;C1;ZONA 06;MONUMENTO A LOS MARTIRES DE LA PRENSA;AVE. GEORGE WASHINGTON ;https://goo.gl/maps/Zon9QGqw7dkYoGmw8;18.4471271;-69.9254917;CENTRO DE LOS HEROES;355;74.8;149.6;30;35;65;Monumento;2;0;1;1;0;3;4;0;0;0;0;0;0;6;6;18;2;2;0;0;1;0;0;0;0;0;0;0;0;0;0;0;0;0;0;0;21/4/21;21;ABRIL;2021;;1;1;Remozado;Optima condiciones;;
5;ADN-P-5;C1;ZONA 06;BOULEVARD DE HONDURAS;AVE. INDEPENDECIA ANT. DE LLEGAR AVE. ITALIA ;https://goo.gl/maps/htdJnfz8BcjbSEBk8;18.4450102;-69.9362207;URBANIZACION HONDURAS;2187;860.12;1720.24;2347;2904;5251;Boulevard;2;0;8;0;0;23;15;0;9;0;0;0;0;60;60;900;0;0;22;0;1;0;0;0;0;0;0;0;0;0;0;0;0;0;0;0;19/4/21;19;ABRIL;2021;;1;1;Nuevo;Optima condiciones;;
6;ADN-P-6;C1;ZONA 09;PARQUE FUERTE SAN JOSE;AVE. PRESIDENTE ANTONIO BILLINI;https://goo.gl/maps/hB4ZhvVFfMkwSfqL6;18.4691782;-69.8863648;ZONA COLONIAL;8788;508.17;1016.34;2489;3046;5535;Parque;2;0;0;0;0;56;9;0;5;0;0;0;0;10;10;125.1;0;0;0;3;7;1;1;0;0;0;0;0;0;0;0;0;0;0;0;0;20/4/21;20;ABRIL;2021;;1;1;Remozado;Optima condiciones;;
7;ADN-P-7;C1;ZONA 09;PARQUE SAN MIGUEL;CALLE JOSE REYES;https://goo.gl/maps/bBff5WMoSWS6Gt3r7;18.4761726;-69.890074;ZONA COLONIAL;1402;85.44;170.88;2489;3046;5535;Parque;1;0;1;0;0;9;18;0;4;0;0;0;0;7;7;90.1;1;10;9;0;0;0;0;0;0;0;0;0;0;0;0;0;0;0;0;0;29/4/21;29;ABRIL;2021;;1;1;Remozado;Optima condiciones;;
8;ADN-P-8;C1;ZONA 06;PASEO DE LOS ROBLES AMARILLOS;AVE. JIMÉNEZ MOYA;https://goo.gl/maps/NXCZdWqTUTGf6BWg8;18.4476984;-69.9255562;CENTRO DE LOS HEROES;718;170.71;597.485;30;35;65;Parque;2;0;2;0;0;4;16;0;2;0;0;0;0;25;25;205.62;0;0;8;0;3;0;0;0;0;0;0;0;0;0;0;0;0;0;0;0;19/4/21;19;ABRIL;2021;;1;1;Nuevo;Optima condiciones;;
9;ADN-P-9;C1;ZONA 09;PASEO PRESIDENTE BILLINI;CALLE PADRE BILLINI;https://goo.gl/maps/BnLKXTHGLGQBj3468;18.4715453;-69.8848076;ZONA COLONIAL;943.66;61.76;123.52;2489;3046;5535;Parque;1;0;2;0;0;0;15;0;3;0;0;0;0;6;6;0;0;4;5;1;3;0;0;0;0;0;0;0;0;0;0;0;0;0;0;0;14/4/21;14;ABRIL;2021;;1;1;Remozado;Optima condiciones;;
10;ADN-P-10;C1;ZONA 09;PUERTA DE LA MISERICORDIA;CALLE ESTRELLETA;https://goo.gl/maps/XacrsvJzfVQiAn6b6;18.4683237;-69.8896769;CIUDAD NUEVA;1647.07;117.82;235.64;1419;1553;2972;Monumento;0;0;0;0;0;0;5;0;3;0;0;0;0;15;15;0;1;27;1;1;10;0;0;0;0;0;0;0;0;0;0;0;0;0;0;0;7/5/21;7;MAYO;2021;;1;1;Remozado;Optima condiciones;;
11;ADN-P-11;C1;ZONA 09;PARQUE SAN LAZARO;CALLE SANTOME ESQ CALLE JUAN ISIDRO PEREZ;https://goo.gl/maps/AS8eWfVhemNFz4ui7;18.4742713;-69.8912811;SAN LAZARO;899.16;90.77;181.54;2489;3046;5535;Parque;3;0;1;0;0;13;12;0;4;0;0;0;0;11;13;35.1;0;0;0;0;0;1;1;0;0;0;0;0;0;0;0;0;0;0;0;0;14/5/21;14;MAYO;2021;;1;1;Remozado;Optima condiciones;;
12;ADN-P-12;C2;ZONA 01;PARQUE CRISANTEMOS;AVE LOS PROCERES PARALELAS CALLES CRISANTEMOS;https://maps.app.goo.gl/N8wNjRQDnRW3yXcr7;18,487906;-69,958176;JARDINEs DEL NORTE;8111.09;572.33;1144.66;6295;7445;13740;Parque;2;0;0;0;0;44;28;0;0;14;0;0;0;151;151;1394.3;0;1;40;1;0;0;0;0;0;0;0;0;0;0;0;0;0;0;0;0;30/7/21;30;JULIO;2021;;2;1;Nuevo;Optima condiciones;;
13;ADN-P-13;C1;ZONA 07;PARQUE IBEROAMERICA;AVE. ALMA MATER ESQ. CESAR NICOLAS PENSON;https://goo.gl/maps/TvHREEZXiMt7E4Gw7;18.4670462;-69.9222689;LA ESPERILLA;115090;985.1;1970.2;3663;4458;8121;Parque;0;0;0;0;0;0;0;0;0;0;0;0;0;0;0;0;0;0;0;0;0;0;0;0;0;0;0;0;0;0;0;0;0;0;0;0;21/10/21;21;OCTUBRE;2021;;1;1;Remozado;Optima condiciones;;
14;ADN-P-14;C3;ZONA 10;PARQUE LA ZURZA;AVE PASEO DE LOS REYES CATOLICOS;https://maps.app.goo.gl/rqyVGWnXHS7BF9KH9;18,505433;-69,914860;LA ZURZA;1047.65;190.78;381.56;10340;9864;20204;Parque;1;0;4;0;0;22;16;0;5;4;0;0;0;4;19;245.5;0;0;0;0;0;0;0;0;0;0;0;0;0;0;0;0;0;0;0;0;6/8/21;6;AGOSTO;2021;;3;1;Remozado;Optima condiciones;;
15;ADN-P-15;C1;ZONA 03;PARQUE LOS PRADITOS;AVE. DR FERNANDO ALBERTO DEFILLO;https://goo.gl/maps/JsZnHCZsmghB2kaT9;18.4692681;-69.9521889;LOS PRADITOS;410;27.73;55.46;7227;7824;15051;Parque;0;0;0;0;0;0;0;0;0;0;0;0;0;1;1;0;0;0;0;0;0;0;0;0;0;0;0;0;0;0;0;0;0;0;0;0;27/5/21;27;MAYO;2021;;1;1;Remozado;Optima condiciones;;
16;ADN-P-16;C1;ZONA 06;PARQUE COSTA BRAVA;CALLE AZUA;https://maps.app.goo.gl/TX7CqAmHfvoAyx348;18,4452500;-69,929804;COSTA BRAVA;745;90.47;180.94;4121;5095;9216;Parque;1;6;0;1;0;10;7;0;2;8;2;0;2;28;28;86.7;0;1;19;0;0;1;0;0;0;0;1;0;0;0;0;0;0;0;0;0;22/7/21;22;JULIO;2021;;1;1;Remozado;Optima condiciones;;
17;ADN-P-17;C2;ZONA 01;PARQUE BARRIO AZUL;CALLE SAN CRISTÓBAL ;https://goo.gl/maps/Ed3L653LdN6vVy9bA;18.4975045;-69.9628211;BARRIO AZUL;150;18.54;37.08;24591;26673;51264;Parque;1;1;1;1;0;13;3;3;3;4;0;1;1;32;32;200;0;0;1;0;0;1;0;0;0;1;0;1;0;0;0;0;0;0;0;0;7/7/21;7;JULIO;2021;;2;1;Remozado;Optima condiciones;;
18;ADN-P-18;C1;ZONA 10;PARQUE BRAULIO ALVAREZ;AVE. 27 DE FEBRERO ESQ TUNTI CACERES;https://goo.gl/maps/m1rJ9DdeLoTkSzs1A;18.4829351;-69.8984829;VILLA CONSUELO;4796.66;336.29;672.58;9169;9796;18965;Parque;2;0;6;1;0;39;44;0;13;17;0;0;0;108;110;0;0;3;0;0;0;0;0;0;0;0;0;0;0;0;0;0;0;0;0;0;21/10/21;21;OCTUBRE;2021;;1;1;Remozado;Procceso de intervencion por mal uso;;
19;ADN-P-19;C1;ZONA 08;OBELISCO HEMBRA (MONUMENTO A LA INDEPENDENCIA FINANCIERA);AVE. GEORGE WASHINGTON ;https://goo.gl/maps/vvWS5E97bsJE8Chd9;18.4672731;-69.8898319;CIUDAD NUEVA;2456.41;62.95;125.9;1419;1553;2972;Monumento;0;0;0;0;0;0;0;0;0;0;0;0;0;0;0;0;0;2;0;1;0;0;0;0;0;0;0;0;0;0;0;0;0;0;0;0;7/5/21;7;MAYO;2021;;1;2;Remozado;Optima condiciones;;
20;ADN-P-20;C1;ZONA 06;PARQUE JUAN BOSCH;AVE. GEORGE WASHINGTON ;https://goo.gl/maps/Mab3LNfLiv5NywpY6;18.4679340;-69.8884835;ZONA COLONIAL;889;104.04;208.08;2489;3046;5535;Parque;0;0;1;0;0;1;7;0;2;0;0;0;0;26;26;40;1;4;0;2;6;0;0;0;0;0;0;0;0;0;0;0;0;0;0;0;12/6/21;12;JUNIO;2021;;1;1;Remozado;Optima condiciones;;
21;ADN-P-21;C3;ZONA 10;PARQUE JOSE RAMON  SANCHEZ (ZURZA II );CALLE 38;https://goo.gl/maps/PzxjB6Vb1MLZdb8E6;18.5017829;-69.91493;LA ZURZA;254.1;33.44;66.88;10340;9864;20204;Parque;0;0;0;0;0;0;6;0;0;3;0;0;0;6;6;0;0;0;0;0;0;0;0;0;0;0;0;0;0;0;0;0;0;0;0;0;6/8/21;6;AGOSTO;2021;;3;1;Nuevo;Optima condiciones;;
22;ADN-P-22;C1;ZONA 08;PLAZA DEL HOMENAJE (PARQUE SAN MARTIN);AVE. LEOPOLDO NAVARRO;https://goo.gl/maps/UzH4ufm12VqBCXtJ7;18.4816163;-69.9072282;MIRAFLORES;1034;370.07;740.14;757;907;1664;Plaza;0;0;0;0;0;0;8;0;0;0;0;0;0;25;29;0;0;0;0;1;0;0;0;0;0;0;0;0;0;0;0;0;0;0;0;0;8/7/21;8;JULIO;2021;;1;1;Remozado;Optima condiciones;;
23;ADN-P-23;C1;ZONA 08;PLAZA DEL HOMENAJE (PARQUE MAURICIO BAEZ);AVE. LEOPOLDO NAVARRO;https://goo.gl/maps/UzH4ufm12VqBCXtJ7;18.4816163;-69.9072282;MIRAFLORES;5361;164.97;329.94;757;907;1664;Plaza;1;0;0;0;0;0;0;0;13;22;0;0;0;29;34;152.2;0;0;0;4;2;0;0;0;0;0;0;0;0;0;0;0;0;0;0;0;8/7/21;8;JULIO;2021;;1;1;Remozado;Optima condiciones;;
24;ADN-P-24;C1;ZONA 07;PARQUE GALICIA;JOSE CONTRERAS ESQ ABRAHAM LINCOLN;https://maps.app.goo.gl/gZGFmZtCD7kHphPU9;18,457919;-69.925850;LA JULIA;1280;165.84;331.68;2703;3203;5906;Parque;1;0;5;0;0;23;11;0;9;0;0;0;0;18;18;0;5;0;0;6;10;0;0;0;0;0;0;0;0;0;0;0;0;0;0;0;10/6/21;10;JUNIO;2021;;1;1;Remozado;Optima condiciones;;
25;ADN-P-25;C1;ZONA 09;FUERTE DEL ANGULO  (SANTA BARBARA );AVE MELLA;https://goo.gl/maps/g4LBNpRn3mwinmrq7;18.4794962;-69.886169;ZONA COLONIAL;416.17;22.05;44.1;2489;3046;5535;Monumento;0;0;1;0;0;3;0;0;2;0;0;0;0;2;2;0;0;2;0;0;2;0;0;0;0;0;0;0;0;0;0;0;0;0;0;0;7/5/21;7;MAYO;2021;;1;1;Remozado;Optima condiciones;;
26;ADN-P-26;C1;ZONA 09;PARQUE JOSEFA MARIA MORELO Y PAVON (JESUS MIO/SEÑOR MIO);AVE 30 DE MARZO;https://goo.gl/maps/XaVQkXBFKfvQhPcr8;18.476209;-69.896313;SAN CARLOS;1839;200.13;400.26;3737;4055;7792;Parque;0;0;0;0;0;41;34;0;3;0;0;0;0;31;34;92.3;0;6;0;1;0;0;0;0;0;0;0;0;0;0;0;0;0;0;0;0;16/9/21;16;SEPTIEMBRE;2021;;1;1;Remozado;Optima condiciones;;
27;ADN-P-27;C1;ZONA 07;PLAZA RAFAEL  MARIA BARALT PEREZ;CALLE CESAR NICOLAS PENSON;https://maps.app.goo.gl/dFkEVZhMmuNbBgLx7;18.453377;-69.943122;LA ESPERILLA;1932.29;338.65;677.3;3663;4458;8121;Parque;0;0;7;2;0;0;2;0;0;0;0;;0;40;41;472;0;0;0;1;14;0;0;0;0;0;0;0;0;0;0;0;0;0;0;0;21/10/21;21;OCTUBRE;2021;;1;1;Remozado;Optima condiciones;;
28;ADN-P-28;C1;ZONA 06;AREA RECUPERADA /ELIMINACION DE VERTEDERO DEL KM 8 1/2;AVE INDEPENDENCIA ;https://goo.gl/maps/dTixXoUMJZ17j8w28;18.4332137;-69.9631973;KM 8 1/2;32;8.95;17.9;13131;15438;28569;Area Verde- recuperada;1;0;2;0;0;5;0;0;0;0;0;0;0;10;10;18;0;0;1;0;2;0;0;0;0;0;0;0;0;0;0;0;0;0;0;0;26/10/21;26;OCTUBRE;2021;;1;2;Nuevo;Optima condiciones;;
29;ADN-P-29;C1;ZONA 05;PLAZA CASANDRA DAMIRON;AVE WINSTON CHURCHILL;https://goo.gl/maps/9yqMrAgZWE3voRsA6;18.4601937;-69.9359792;MANGUITO;50;17.23;34.46;2703;3203;5906;Plaza;1;0;2;0;0;3;3;0;2;0;0;0;0;18;18;0;2;0;1;1;0;0;0;0;0;0;0;0;0;0;0;0;0;0;0;0;19/5/21;19;MAYO;2021;;1;1;Remozado;Optima condiciones;;
30;ADN-P-30;C1;ZONA 09;BUSTO FRANK FELIX MIRANDA(Columna Conmemorativa Naufragio Balandra Aurora);PASEO PRESIDENTE BILLINI;https://goo.gl/maps/3sNdsZLnk3tyWaWy6;18.4661673;-69.8998513;ZONA COLONIAL;30;0;0;2489;3046;5535;Monumento;0;0;0;0;0;0;2;0;0;0;0;0;0;3;3;35;2;0;0;1;2;0;0;0;0;0;0;0;0;0;0;0;0;0;0;0;8/7/21;8;JULIO;2021;;1;1;Remozado;Optima condiciones;;
31;ADN-P-31;C1;ZONA 07;MONUMENTO A LOS MEDICOS;CALLE GNERAL MODESTO DIAZ;https://maps.app.goo.gl/5u5G5D5NkeBrAtoT7;18.458005;-69.923521;VILLA MARIA;25;10.6;21.2;9169;9796;18965;Monumento;2;0;0;0;0;0;0;0;0;0;11;0;0;0;0;0;0;0;0;0;0;0;0;0;0;0;0;0;0;0;0;0;0;0;0;0;1/2/21;1;FEBRERO;2021;;1;2;Nuevo;Optima condiciones;;
32;ADN-P-32;C1;ZONA 08;PARQUE EUGENIO MARIA DE HOSTOS;AVE GEORGE WASHINTONG;https://goo.gl/maps/KmvGvJobdrsbfjiLA;18.4660669;-69.8944108;GAZCUE;25877;701.33;1402.66;6851;8231;15082;Parque;1;0;6;2;0;70;132;0;13;24;0;4;2;130;132;725;2;10;25;2;47;0;0;1;0;2;0;4;0;1;0;0;0;0;0;0;3/9/21;3;SEPTIEMBRE;2021;;1;1;Remozado;Optima condiciones;;
33;ADN-P-33;C1;ZONA 09;PLAZA PATRIOTICA PROF JUAN BOSCH (CONSTITUCION);AVE GEORGE WASHINTONG;https://goo.gl/maps/W8avjYjiaYJowfSb8;18.4669553;-69.8897308;GAZCUE;886;0;0;6851;8231;15082;Plaza;1;0;0;0;0;1;4;0;1;0;0;0;0;12;12;35;0;0;0;1;2;0;0;0;0;0;0;0;0;0;0;0;0;0;0;0;7/5/21;7;MAYO;2021;;1;1;Remozado;Optima condiciones;;
34;ADN-P-34;C2;ZONA 02;BUSTO HECTOR HOMERO HERNANDEZ;CALLE HECTOR HOMERO HERNANDEZ;https://goo.gl/maps/kVfxfipKGcpStG9d6 ;18.4890846;-69.932942;ENSANCHE LA FE;100;9.35;18.7;8085;8843;16928;Monumento;0;0;0;0;0;0;0;0;0;0;0;0;0;0;6;0;0;0;0;1;0;0;0;0;0;0;0;0;0;0;0;0;0;0;0;0;22/9/21;22;SEPTIEMBRE;2021;;2;2;Nuevo;Optima condiciones;;
35;ADN-P-35;C2;ZONA 01;PLAZA  CONQUISTADORES;AVE. REPUBLICA DE COLOMBIA, ESQ. C/ CONQUISTADORES;https://goo.gl/maps/NLbUFK62rWtv1VPCA ;18.4985287;-69.9584773;ARROYO HONDO;70;29.16;58.32;20277;23099;43376;Plaza;0;0;0;0;0;0;0;0;0;0;0;0;0;7;10;0;0;0;0;1;3;0;0;0;0;0;0;0;0;0;0;0;0;0;0;0;19/9/21;19;SEPTIEMBRE;2021;;2;1;Remozado;Optima condiciones;;
36;ADN-P-36;C2;ZONA 02;PARQUE PUERTO ISABELA (REYES CATOLICO);AVE. PASEO DE LOS REYES CATÓLICOS;https://goo.gl/maps/4frgHB4NybeAJ64H7 ;18.5075422;-69.9202515;CRISTO REY;1075.21;223.8;447.6;27448;29158;56606;Parque;0;0;0;1;0;0;3;0;0;3;0;0;0;21;21;0;0;0;0;0;0;0;0;0;0;0;0;0;0;0;0;0;0;0;0;0;16/9/21;16;SEPTIEMBRE;2021;;2;1;Remozado;Optima condiciones;;
37;ADN-P-37;C1;ZONA 09;PARQUE EDUARDO ABREU (SAN CARLOS);CALLE 16 DE AGOSTO ESQ.C/BENITO GONZALEZ;https://goo.gl/maps/XtkKFini3jVFYeR66 ;18.474511;-69.8944498;SAN CARLOS;1885;116.51;233.02;3737;4055;7792;Parque;1;0;2;0;0;13;12;0;3;0;0;0;0;26;28;0;1;1;0;1;10;0;0;0;0;0;0;0;0;0;0;0;0;0;0;0;30/9/21;30;SEPTIEMBRE;2021;;1;1;Remozado;Optima condiciones;;
38;ADN-P-38;C2;ZONA 01;PARQUE LA YUCA (LOS RIOS);CALLE A.(los Rios);https://goo.gl/maps/SJCSAmhw1MZYNjAJ8;18.4960725;-69.9687166;LOS RIOS;225;55.66;111.32;24591;26673;51264;Parque;0;0;1;0;0;0;5;0;0;8;0;0;0;2;4;23;0;0;0;0;0;0;0;0;0;0;0;0;0;0;0;0;0;0;0;0;2/10/21;2;OCTUBRE;2021;;2;1;Remozado;Optima condiciones;;
39;ADN-P-39;C1;Z0NA 05;PARQUE RESPALDO SEMINARIO;CALLE RESPALDO SEMINARIO;https://goo.gl/maps/Vy9RWZfj2kprMaMg9;18.4624244;-69.9308027;LA JULIA;325;7.96;15.92;2703;3203;5906;Parque;1;0;1;0;0;0;4;0;0;8;0;0;0;15;17;0;0;5;0;0;4;0;0;0;0;0;0;0;0;0;0;0;0;0;0;0;14/10/21;14;OCTUBRE;2021;;1;1;Remozado;Optima condiciones;;
40;ADN-P-40;C1;ZONA 09;PLAZA SAN MIGUEL;CALLE JOSE REYES;https://goo.gl/maps/pA8PrJRVjmPELJQy6;18.4756573;-69.8888986;ZONA COLONIAL;1402;74.98;149.96;2489;3046;5535;Plaza;0;0;2;0;0;0;11;0;2;0;0;0;0;15;15;0;0;0;0;0;0;0;0;0;0;0;0;0;0;0;0;0;0;0;0;0;29/4/21;29;ABRIL;2021;;1;1;Remozado;Optima condiciones;;
41;ADN-P-41;C1;ZONA 09;PLAZA URUGUAY;CALLE MOISES GARCIA;https://goo.gl/maps/fupTxA3BGwFW7VYt8;18.4736683;-69.89694;GAZCUE;1783.73;287.95;575.9;6851;8231;15082;Plaza;3;0;0;0;0;30;6;0;2;0;0;0;0;45;49;0;0;0;36;0;8;0;0;0;0;0;0;0;0;0;0;0;0;0;0;0;22/7/21;22;JULIO;2021;;1;1;Remozado;Optima condiciones;;
42;ADN-P-42;C2;ZONA 01;PLAZA JOSE MARTI (ESTATUA JOSE MARTI);AVE REPUBLICA DE COLOMBIA;https://goo.gl/maps/RM1AoRtftwrav7Hx5;18.4881655;-69.9618287;LOS JARDINES;2541;232.52;465.04;6295;7445;13740;Plaza;0;0;0;0;0;0;0;0;0;0;0;0;0;0;10;2281.28;3;4;0;1;13;0;0;0;0;0;0;0;0;0;0;0;0;0;0;0;28/4/21;28;ABRIL;2021;;2;1;Remozado;Optima condiciones;;
43;ADN-P-43;C1;ZONA 06;PARQUE ATALA;CALLE SAN JUAN BAUTISTA DE LA SALLE;https://goo.gl/maps/tmF32yZp2XCQG8QR6;18.445628;-69.9417718;URB ATALA;420;47.28;94.56;1964;2426;4390;Parque;3;1;2;1;0;57;25;3;5;10;0;2;1;3;39;668.37;0;12;0;0;3;1;1;1;0;2;0;1;0;0;0;0;0;0;0;0;29/10/21;29;OCTUBRE;2021;;1;1;Remozado;Optima condiciones;;
44;ADN-P-44;C1;ZONA 08;PLAZA GUIBIA;AVE GEORGE WASHINTONG;https://goo.gl/maps/qmjEJ4eN6tGhZRZS8;18.4593498;-69.9406607;GAZCUE;10285;306.04;612.08;6851;8231;15082;Plaza;0;0;0;0;0;117;89;0;1;11;0;5;1;94;94;192;0;8;81;0;28;1;1;7;0;4;0;2;1;0;0;0;0;0;0;4;27/10/21;27;OCTUBRE;2021;;1;1;Remozado;Optima condiciones;;
45;ADN-P-45;C2;ZONA 01;PLAZA ECUADOR;CAMINO CHIQUITO;https://goo.gl/maps/oN9JSaQLyFUhdZJA8;18.5033573;-69.944415;MIRADOR DE ARROYO HONDO;3569.14;241.38;482.76;7504;8128;15632;Plaza;1;0;0;1;0;38;23;2;3;0;0;0;0;50;54;182.6;0;0;0;2;0;1;0;0;0;0;0;1;0;0;0;0;0;0;0;0;9/10/21;9;OCTUBRE;2021;;2;1;Remozado;Optima condiciones;;
46;ADN-P-46;C3;ZONA 10;PARQUE LINEAL MAXIMO GOMEZ  (CEMENTERIO);AVE MAXIMO GOMEZ;https://goo.gl/maps/3cBmQRX9TJAy2582A;18.4947925;-69.9189085;VILLA JUANA;256392.99;2060.26;4120.52;13747;14873;28620;Parque;0;0;0;0;0;56;0;0;0;0;0;0;0;0;206;0;2;0;2;0;0;0;0;0;0;0;0;0;0;0;0;0;0;0;0;0;7/11/21;7;NOVIEMBRE;2021;;3;1;Nuevo;Optima condiciones;;
47;ADN-P-47;C1;ZONA 06;AREA RECUPERADA/ELIMINACION VERTEDERO(AVENIDA INDEPENDENCIA);AVENIDA INDEPENDENCIA;https://goo.gl/maps/Gr1dR1a1fj4xKptQ9;18.4287655;-69.9843717;KM 6 1/2;35.33;11.229;22.458;13131;15438;28569;Area Verde- recuperada;1;0;2;0;0;4;0;0;0;0;0;0;0;4;4;0;0;0;0;0;0;0;0;0;0;0;0;0;0;0;0;0;0;0;0;0;8/11/21;8;NOVIEMBRE;2021;;1;2;Nuevo;Optima condiciones;;
48;ADN-P-48;C1;ZONA05;AREA RECUPERADA/ELIMINACION DE VERTEDERO LINCOLN ESQ JOSE CONTRERAS;AVE JOSE CONTRERAS;https://goo.gl/maps/T4tuarbc4fHZMwpz6;18.4582385;-69.9286323;MATA HAMBRE;15;5.2;10.4;3190;3858;7048;Area Verde- recuperada;1;0;0;0;0;3;0;0;0;0;0;0;0;2;2;0;0;0;0;0;0;0;0;0;0;0;0;0;0;0;0;0;0;0;0;0;11/11/21;11;NOVIEMBRE;2021;;1;2;Nuevo;Optima condiciones;;
49;ADN-P-49;C1;ZONA 05;PLAZA MIRADOR NORTE (AREA VERDE CAMILA);CALLE CAMILA HERIQUEZ;https://goo.gl/maps/NVM3KDgMwrJf1cJj8;18.4512409;-69.9562215;MIRADOR NORTE;500;29.48;58.96;3403;4226;7629;Plaza;0;0;0;0;0;0;0;0;0;0;2;0;0;15;15;0;0;0;6;0;4;0;0;0;0;0;0;0;0;0;0;0;0;0;0;0;12/11/21;12;NOVIEMBRE;2021;;1;1;Nuevo;Optima condiciones;;
50;ADN-P-50;C1;ZONA 05;PARQUE CAMILA HENRIQUEZ UREÑA;CALLE CAMILA HERIQUEZ;https://goo.gl/maps/NVM3KDgMwrJf1cJj8;18.4512409;-69.9562215;MIRADOR NORTE;2392;197.49;394.98;2335;2687;5022;Parque;1;0;2;0;0;6;18;0;5;11;0;0;0;38;38;0;0;2;20;0;14;1;0;0;0;0;0;0;0;0;0;0;0;0;0;0;12/11/21;12;NOVIEMBRE;2021;;1;1;Remozado;Optima condiciones;;
51;ADN-P-51;C3;ZONA 10;PARQUE PEDRO LIVIO CEDEÑO;CALLE PEDRO LIVIO CEDEÑO;https://goo.gl/maps/TKt55VnSaX5nAc5c6;18.4950343;-69.900049;ENSANCHE LUPERON;1656.37;220.94;441.88;6490;8175;14665;Parque;3;0;4;1;0;32;53;0;12;11;0;0;0;33;33;0;0;0;1;0;0;0;0;0;0;0;0;0;0;0;0;0;0;0;0;0;12/11/21;12;NOVIEMBRE;2021;;3;1;Remozado;Optima condiciones;;
52;ADN-P-52;C1;ZONA 05;PARQUE CANINO (MIRADOR SUR );MIRADOR SUR;https://goo.gl/maps/PXDQDq8jREv1Ht8H9;18.4440942;-69.954346;MIRADOR SUR;300;0;0;2335;2687;5022;Parque;1;1;0;0;0;4;0;0;3;0;0;0;0;0;0;0;0;0;4;1;6;0;0;0;1;0;0;0;0;0;0;0;0;0;0;0;18/11/21;18;NOVIEMBRE;2021;;1;1;Nuevo;Optima condiciones;;
53;ADN-P-53;C1;ZONA 05;PARQUE MIRADOR  SUR;AV ANACAONA;https://goo.gl/maps/hWYBxMT4uFtZAyHK6;18.4469562;-69.9482099;MIRADOR SUR;1328228.37;23540;47080;2335;2687;5022;Parque;0;0;0;0;0;0;0;0;0;0;0;0;0;0;0;0;0;0;0;0;0;0;0;0;0;0;0;0;0;0;0;0;0;0;0;0;7/12/21;7;DICIEMBRE;2021;PRIMERA ETAPA;1;1;Remozado;Optima condiciones;;
54;ADN-P-54;C1;ZONA 05;PARQUE MIGUEL ANGEL MONCLUS;CALLE MIGUEL ANGEL MONCLUS;https://goo.gl/maps/3xsnLGmqiW7haqJAA;18.4511492;-69.9580702;LOS MAESTROS;502;37.11;74.22;3488;4531;8019;Parque;0;0;0;0;0;0;0;0;0;0;0;0;0;30;30;0;0;0;0;0;0;0;0;0;0;0;0;0;0;0;0;0;0;0;0;0;27/12/21;27;DICIEMBRE;2021;;1;1;Remozado;Optima condiciones;;
55;ADN-P-55;C3;ZONA 19;PARQUE MIRADOR DE GUACHUPITA;AVE FRANCISCO DEL ROSARIO SANCHEZ;https://goo.gl/maps/MYvQR6Pwr2qBDb896;18.4939583;-69.8845816;GUACHUPITA;1024.58;144.32;288.64;22272;21821;44093;Parque;0;0;0;0;0;0;0;0;0;0;0;0;0;0;0;0;0;0;0;0;1;0;0;0;0;0;0;0;0;0;0;0;0;0;0;0;12/12/21;12;DICIEMBRE;2021;;3;1;Remozado;Optima condiciones;;
56;ADN-P-56;C2;ZONA  01;PARQUE GALA-CONSTELACION ;C/ ORION ESQ. C/ OSAMENOR;https://goo.gl/maps/ZMQWWqpRmfRt7wXy7;18.4847807;-69.9650198;LOS RIOS;1990.96;188.73;377.46;24591;26673;51264;Parque;1;0;3;1;0;24;6;0;4;5;0;0;0;36;36;257.19;0;0;0;0;1;0;0;0;0;0;0;0;0;0;0;0;0;0;0;0;14/12/21;14;DICIEMBRE;2021;;2;1;Remozado;Optima condiciones;;
57;ADN-P-57;C3;ZONA 19;PARQUE AGUA DULCE;CALLE 3RA #57;https://goo.gl/maps/2Vk7nCwBYqq3S4hNA;18.5013643;-69.8831725;AGUA DULCE;200;32.19;64.38;19077;20273;39350;Parque;1;0;1;2;0;16;7;0;2;6;0;0;1;13;13;200;0;4;0;0;1;1;0;1;0;2;0;1;0;0;0;0;0;0;0;0;18/12/21;18;DICIEMBRE;2021;;3;1;Nuevo;Optima condiciones;;
58;ADN-P-58;C1;ZONA 09;PARQUE DUARTE;CALLE EUGENIO MARIA DE HOSTOS ;https://maps.app.goo.gl/HhpTL2wQfJHSGZ7j6;18.471700;-69.885300;ZONA COLONIAL;1875.28;130.19;260.38;2489;3046;5535;Parque;1;0;0;0;0;0;0;0;0;0;0;0;0;18;18;0;0;0;0;1;3;0;0;0;0;0;0;0;0;0;0;0;0;0;0;0;26/1/22;26;ENERO;2022;;1;1;Remozado;Optima condiciones;;
59;ADN-P-59;C1;ZONA 06;AREA RECUPERADA/ELIMINACION DE VERTEDERO(CAYETANO GERMOSEN);CAYETANO GERMOSEN;https://maps.app.goo.gl/qt2ysCrLZYuFFmo28;18.440541;-69.958457;URBANIZACION HONDURAS;25;5;10;2347;2904;5251;Area Verde- recuperada;1;0;0;0;0;2;0;0;0;0;4;0;0;18;18;0;0;0;0;0;0;0;0;0;0;0;0;0;0;0;0;0;0;0;0;0;19/2/22;19;FEBRERO;2022;;1;2;Nuevo;Optima condiciones;;
60;ADN-P-60;C1;ZONA 06;PARQUE 30 DE MAYO ;CALLE CENTRAL ESQ ERCILIO MONTERO;https://maps.app.goo.gl/TQzJPjogHNmBPNSh8;18.439085;-69.936795;30 DE MAYO;860;91.92;183.84;3180;3432;6612;Parque;2;5;1;1;0;26;13;3;9;9;0;2;1;42;42;294;0;4;0;0;8;0;0;0;1;0;0;0;0;0;0;0;0;0;0;0;9/2/22;9;FEBRERO;2022;PRIMERA ETAPA;1;1;Remozado;Optima condiciones;;
61;ADN-P-61;C2;ZONA 32;PARQUE LA PUYA;AVE. LA VEGA REAL;https://goo.gl/maps/XfDGCb6Hgr8nVgDdA;18.5053343;-69.9393055;LA PUYA;1787;78.39;156.78;20277;23099;43376;Parque;1;0;0;0;0;6;14;0;7;3;0;0;0;26;26;0;0;0;1;0;0;0;0;0;0;0;0;0;0;0;0;0;0;0;0;0;20/2/22;20;FEBRERO;2022;;2;1;Remozado;Optima condiciones;;
62;ADN-P-62;C2;ZONA 32;PARQUE APOLO II;AVE. LA VEGA REAL ESQ APOLO XI;https://goo.gl/maps/QnXjahKQwHz7fjLs6;18.5059153;-69.9367352;LA PUYA;310;63.26;126.52;20277;23099;43376;Parque;0;0;0;0;0;0;0;0;0;0;0;0;0;3;3;0;0;2;0;0;0;0;0;0;0;0;0;0;0;0;0;0;0;0;0;0;20/2/22;20;FEBRERO;2022;;2;1;Remozado;Optima condiciones;;
63;ADN-P-63;C3;ZONA 10;PARQUE ROSSI;AVE. JUAN PABLO DUARTE ESQ ALONSO DE ESPINOSA;https://goo.gl/maps/uS4PEB4oJC7e2ha37;18.4969617;-69.9044408;VILLAS AGRICOLAS;470.01;120.62;241.24;12881;13197;26078;Parque;1;0;4;0;0;22;10;0;4;0;0;0;0;12;12;0;0;0;0;0;0;0;0;0;0;0;0;0;0;0;0;0;0;0;0;0;18/2/22;18;FEBRERO;2022;;3;1;Nuevo;Optima condiciones;;
64;ADN-P-64;C1;ZONA 06;AREA RECUPERADA/ELIMINACION DE VERTEDERO (AVENIDA LUPERON ESQ SANCHEZ);AVE. LUPERON;https://goo.gl/maps/X6R6sDnTchEQHCr49;18.4282012;-69.9896492;KM 12;30;10.84;21.68;4771;5673;10444;Area Verde- recuperada;1;0;2;0;0;3;0;0;0;0;0;0;0;0;0;0;0;0;0;0;0;0;0;0;0;0;0;0;0;0;0;0;0;0;0;0;24/2/22;24;FEBRERO;2022;;1;2;Nuevo;Optima condiciones;;
65;ADN-P-65;C2;ZONA 02;PARQUE LA JAVILLA;AVE  SAN MARTIN;https://goo.gl/maps/qk5umgpudRFLSfCc7;18.4848953;-69.9171504;ENSANCHE LA FE;882;177.48;354.96;8085;8843;16928;Parque;0;0;0;0;0;0;0;0;0;0;0;0;0;23;23;0;0;0;0;0;0;0;0;0;0;0;0;0;0;0;0;0;0;0;0;0;9/3/22;9;MARZO;2022;;2;1;Remozado;Optima condiciones;;
66;ADN-P-66;C1;ZONA 06;PASEO BOULEVARD DEL INVI;AV INDEPENDENCIA;https://goo.gl/maps/gcdDsWhM4WK16Kdp9;18.4299599;-69.9768134;INVI;1920.16;820.4;1640.8;4426;5362;9788;Boulevard;1;0;2;0;0;34;15;0;5;0;0;0;0;45;45;0;0;0;10;0;0;0;0;0;0;0;0;0;0;0;0;0;0;0;0;0;12/3/22;12;MARZO;2022;;1;1;Nuevo;Optima condiciones;;
67;ADN-P-67;C1;ZONA 08;PLAZA JUAN BARON;AVE GEORGE WASHINTONG;https://goo.gl/maps/94M2x95PEZMqc7fZ9;18.4646216;-69.8948724;CIUDAD NUEVA;17292;304.84;1066.94;1419;1553;2972;Plaza;1;0;1;0;0;28;50;0;16;15;0;3;5;85;85;518;0;1;20;0;7;0;0;1;0;2;0;2;0;1;0;0;0;0;0;6;16/3/22;16;MARZO;2022;;1;1;Remozado;Optima condiciones;;
68;ADN-P-68;C1;ZONA 09;PLAZOLETA MARIA TRINIDAD SANCHEZ;AVE. MERCEDES ESQ 19 DE MARZO;https://goo.gl/maps/5FfoFVvdqLfPTnYa8;18.4743664;-69.8871118;CIUDAD COLONIAL;416.51;128.3;256.6;2489;3046;5535;Plaza;1;0;0;0;0;0;9;0;0;0;0;0;0;11;11;0;0;0;0;2;0;0;0;0;0;0;0;0;0;0;0;0;0;0;0;0;18/3/22;18;MARZO;2022;;1;1;Remozado;Optima condiciones;;
69;ADN-P-69;C3;ZONA 19;PARQUE LOMA DEL CHIVO;CALLE C;https://goo.gl/maps/Y1E5B2Jz7m4byKJc8;18.4969962;-69.890536;MARIA AUXILIADORA;199.38;37.45;74.9;19077;20273;39350;Parque;1;1;1;1;0;2;1;0;0;3;0;0;0;3;3;0;0;0;3;0;0;0;0;0;0;0;0;0;0;0;0;0;0;0;0;0;19/3/22;19;MARZO;2022;;3;1;Remozado;Optima condiciones;;
70;ADN-P-70;C3;ZONA 11;PLAZOLETA JOSE FRANCISCO PEÑA GOMEZ;AVE. PADRE CASTELLANOS ESQ JOSE FRANCISCO DEL ROSARIO SANCHEZ;https://goo.gl/maps/oX3HRbrZWd4QXfwi8;18.5039302;-69.8846652;GUALEY;4156.14;240.08;480.16;10076;10727;20803;Plaza;3;4;2;0;0;16;0;0;3;0;0;3;2;41;41;307.4;1;21;11;2;3;0;0;0;0;4;0;2;0;1;0;0;0;0;0;0;10/5/22;10;MAYO;2022;;3;1;Remozado;Optima condiciones;;
71;ADN-P-71;C1;ZONA 09;AREA RECUPERA /ELIMINACION DE VERTEDEROS (EMILIO PRUD HOMME ESQ AVE. MEXICO);AVE. Mexico ESQ EMILIO PRUD HOMME;https://goo.gl/maps/5LnyP4JegXRKiSxG7;18.4767291;-69.8957103;SAN CARLOS;47;22.28;44.56;3737;4055;7792;Area Verde- recuperada;1;0;1;0;0;3;0;0;0;0;0;0;0;0;0;0;0;0;0;0;0;0;0;0;0;0;0;0;0;0;0;0;0;0;0;0;31/3/22;31;MARZO;2022;;1;2;Nuevo;Optima condiciones;;
72;ADN-P-72;C1;ZONA 03;AREA RECUPERADA /ELIMINACION DE VERTEDEROS URB. FERNANDEZ;CALLE HERIBERTO NUÑEZ;https://goo.gl/maps/aA8UqeBwASixNBtJ6;18.4733683;-69.9516872;URB.FERNANDEZ;50;9.12;18.24;7227;7824;15051;Area Verde- recuperada;1;0;0;0;0;1;0;0;0;0;0;0;0;0;0;0;0;0;0;0;0;0;0;0;0;0;0;0;0;0;0;0;0;0;0;0;31/3/22;31;MARZO;2022;;1;2;Nuevo;Optima condiciones;;
73;ADN-P-73;C3;ZONA 09;TRIANGULO DE LA MEXICO ESQ JUANA SALTITOPA;AVE, MEXICO ESQ JUANA SALTITOPA;https://goo.gl/maps/Xq54ENXHEWjZQpWf6;18.4814981;-69.8871533;VILLA FRANCISCA;959.72;59.99;119.98;7256;7711;14967;Area Verde- recuperada;0;0;0;0;0;4;2;0;0;0;0;0;0;0;0;0;0;0;0;1;2;0;0;0;0;0;0;0;0;0;0;0;0;0;0;0;30/3/22;30;MARZO;2022;;3;1;Nuevo;Optima condiciones;;
74;ADN-P-74;C1;ZONA 09;PARQUE ROLITAS;AVE. MEXICO ESQ C. JUAN BAUTISTA VICINI BURGOS;https://goo.gl/maps/F872YiXr9VnkJvY37;18.4771252;-69.8936437;SAN CARLOS;350;48.69;97.38;3737;4055;7792;Parque;1;0;1;0;0;12;16;0;2;0;3;0;0;12;12;0;0;0;1;0;0;0;0;0;0;0;0;0;0;0;0;0;0;0;0;0;31/3/22;31;MARZO;2022;;1;1;Remozado;Optima condiciones;;
75;ADN-P-75;C1;ZONA 06;PARQUE BRISAS DEL MAR I;CALLE 1ERA  ESQ ROLDAN;https://goo.gl/maps/QzXZkCXpsmfWFkiN6;18.4424313;-69.9357775;BRISAS DEL MAR;414.77;114.7;229.4;4121;5095;9216;Parque;1;6;0;1;0;1;3;0;6;9;0;2;2;8;8;0;0;9;2;0;0;1;0;0;0;2;0;0;0;0;0;0;0;0;0;0;31/3/22;31;MARZO;2022;;1;1;Remozado;Optima condiciones;;
76;ADN-P-76;C1;Z0NA 06;PARQUE BRISAS DEL MAR II;CALLE 1ERA  ESQ ROLDAN;https://goo.gl/maps/QzXZkCXpsmfWFkiN6;18.4424313;-69.9357775;BRISAS DEL MAR;828;65.08;130.16;4121;5095;9216;Parque;1;0;0;0;0;8;3;0;2;0;0;0;0;15;15;161.4;0;0;9;0;0;0;0;0;0;0;0;0;0;0;0;0;0;0;0;0;31/3/22;31;MARZO;2022;;1;1;Remozado;Optima condiciones;;
77;ADN-P-77;C1;Z0NA 06;PARQUE ALTOS DEL PEDREGAL;AVE CAYETANO GERMOSEN ;https://goo.gl/maps/1AkpNmkHLHRaFNAEA;18.4335309;-69.9853627;ALTOS DEL PEDREGAL;1112;47.01;94.02;4771;5673;10444;Parque;1;1;0;1;0;13;8;0;3;3;0;0;0;11;10;40;0;2;6;0;1;1;0;0;0;0;0;0;0;0;0;0;0;0;0;0;2/4/22;2;ABRIL;2022;;1;1;Renovado;Optima condiciones;;
78;ADN-P-78;C1;ZONA 05;PLAY DE LA CAYETANO;AVE CAYETANO GERMOSEN ;https://goo.gl/maps/k1ZMudMhG8g2vt2d8;18.4415218;-69.9522014;JARDINES DEL SUR;3756.25;95.87;191.74;5014;5612;10626;Play;1;1;1;0;0;8;0;0;3;0;0;1;2;0;0;600.26;0;2;2;0;2;0;0;0;0;0;0;0;0;0;0;0;0;0;0;0;7/4/22;7;ABRIL;2022;;1;1;Renovado;Optima condiciones;;
79;ADN-P-79;C1;ZONA 07;PARQUE CHILE;AVE. PEDRO HERRIQUEZ UREÑA;https://goo.gl/maps/W32TQKdmStydJxcu9;18.4694431;-69.9199343;LA ESPERILLA;786.68;289.81;579.62;3663;4458;8121;Parque;2;0;0;0;0;22;4;0;2;0;0;0;0;30;30;348.9;2;0;8;0;2;0;0;0;0;0;0;0;0;0;0;0;0;0;0;0;7/4/22;7;ABRIL;2022;;1;1;Remozado;Optima condiciones;;
80;ADN-P-80;C2;ZONA 01;PARQUES LAS AVENIDAS;AVE. CORONEL LORA FERNANDEZ ESQ CALLE C;https://goo.gl/maps/hU2SBdDvrbRaq6s48;18.4842224;-69.9701693;LAS AVENIDAS;3000;316.19;632.38;24591;26673;51264;Parque;1;0;0;0;0;24;20;0;6;0;0;0;0;73;73;730.3;0;0;0;1;1;0;0;0;0;0;0;0;0;0;0;0;0;0;0;0;23/4/22;23;ABRIL;2022;;2;1;Nuevo;Optima condiciones;;
81;ADN-P-81;C1;ZONA 03;PARQUE BUEN PASTOR;CALLE PASEO DE LOS LOCUTORES;https://goo.gl/maps/SvGVxTY8a6y3gJE87;18.4622492;-69.9436178;EVARISTO MORALES;1200;219.2;438.4;17748;20409;38157;Parque;1;4;2;0;0;8;3;0;7;0;0;2;1;27;27;;0;25;1;0;0;1;1;0;0;2;0;1;0;0;0;0;0;0;0;0;28/4/22;28;ABRIL;2022;;1;1;Remozado;Optima condiciones;;
82;ADN-P-82;C2;ZONA 02;PARQUE LAS VILLAS I;AVE. EUCLIDES MORILLO  ESQ INTERIOR EUCLIDE MORILLO;https://goo.gl/maps/RhG6zYbydTiviUsr5;18.4867834;-69.9449643;LAS VILLAS;879;85.35;170.7;6295;7445;13740;Parque;1;1;1;0;0;8;3;0;1;0;5;0;0;14;14;65.23;0;0;8;0;0;0;0;0;0;0;0;0;0;0;0;0;0;0;0;0;5/4/22;5;ABRIL;2022;;2;1;Nuevo;Optima condiciones;;
83;ADN-P-83;C1;ZONA 06;PARQUE MARIPILY;CALLE CENTRAL;https://goo.gl/maps/Tpdyq4Zfnv4vs87TA;18.4483416;-69.9357294;MARYPILY;913;92.29;184.58;2347;2904;5251;Parque;1;0;4;0;0;10;6;0;3;0;0;0;0;20;20;91.29;0;0;10;0;0;0;0;0;0;0;0;0;0;0;0;0;0;0;0;0;13/5/22;13;MAYO;2022;;1;1;Remozado;Optima condiciones;;
84;ADN-P-84;C1;ZONA 06;AREA RECUPERADA ABRAHAM LICOLN ESQ JOSE CONTRERAS;AVE.ABRAHAM LINCOLN ESQ JOSE CONTRERAS;https://goo.gl/maps/o4hshdxD94ukShKT8;18.4582281;-69.9284462;MATA HAMBRE;30;9.23;18.46;3190;3858;7048;Area Verde- recuperada;1;0;1;0;0;1;0;0;0;0;0;0;0;1;1;;0;0;;;;0;0;0;0;0;0;0;0;0;0;0;0;0;0;0;16/5/22;16;MAYO;2022;;1;2;Nuevo;Optima condiciones;;
85;ADN-P-85;C2;ZONA 02;PARQUE CRUZ JIMINIAN;CALLE RAFAEL J. CASTILLO ESQ FELIX EVARISTO MEJIA;https://goo.gl/maps/8WRp8NMFQEn7DNLg6;18.49748;-69.9228934;CRISTO REY;132.75;17.13;34.26;27448;29158;56606;Parque;0;1;1;1;0;0;16;0;2;7;0;0;0;21;21;0;0;9;0;0;0;1;0;0;0;2;0;0;0;0;0;0;0;0;0;0;24/5/22;24;MAYO;2022;;2;1;Remozado;Optima condiciones;;
86;ADN-P-86;C1;ZONA 03;PARQUE LOS PRADOS;C NICOLAS UREÑA DE MENDOZA;https://goo.gl/maps/iwQiK77EXetLAG1L7;18.4772008;-69.9550016;LOS PRADOS;2328;135.96;271.92;4767;5532;10299;Parque;0;0;5;1;0;32;24;0;9;8;0;2;1;25;25;190;0;0;0;0;0;0;0;0;0;2;0;1;0;0;0;0;0;0;0;0;10/4/22;10;ABRIL;2022;;1;1;Remozado;Optima condiciones;;
87;ADN-P-87;C1;ZONA 08;OBELISCO MACHO;AVE. PRESIDENTE ANTONIO BILLINI;https://goo.gl/maps/wRLH2dSSVULxsBXn6;18.4645752;-69.8960906;CIUDAD NUEVA;280;67.2;134.4;1419;1553;2972;Monumento;0;0;0;0;0;0;0;0;0;0;0;0;0;0;0;0;0;5;2;1;0;0;0;0;0;0;0;0;0;0;0;0;0;0;0;0;22/6/22;22;JUNIO;2022;;1;1;Remozado;Optima condiciones;;
88;ADN-P-88;C1;ZONA 06;PARQUE NORDESA II;CALLE NORDESA II;https://goo.gl/maps/C1wjD2dUg97TZdy99;18.4276041;-69.9723376;COSTA CARIBE;310;54.63;109.26;3275;3832;7107;Parque;1;0;1;1;0;11;4;0;2;3;0;0;0;2;5;126.7;0;0;7;0;2;0;0;0;0;0;0;0;0;0;0;0;0;0;0;0;6/7/22;6;JULIO;2022;;1;1;Remozado;Optima condiciones;;
89;ADN-P-89;C1;ZONA 06;PLAZOLETA EUGENIO MARCANO;CALLE VIENTOS DEL OESTE;https://goo.gl/maps/8Qf8N6KQjm1DTKJH6;18.4339385;-69.9747217;BUENOS AIRES MIRADOR;354.62;30.41;60.82;13131;15438;28569;Plaza;1;0;1;0;0;4;0;0;0;0;0;0;0;15;15;111.5;0;0;0;0;2;0;0;0;0;0;0;0;0;0;0;0;0;0;0;0;6/7/22;6;JULIO;2022;;1;1;Remozado;Optima condiciones;;
90;ADN-P-90;C1;ZONA 07;BOULEVARD DE LOS ESTUDIANTES;AVE. ALMA MATER;https://goo.gl/maps/zzdJU2C3rfyGBHYs6;18.4639073;-69.922531;LA JULIA;3003.97;428.53;857.06;2703;3203;5906;Boulevard;2;0;0;0;0;24;33;0;6;0;0;0;0;8;28;0;0;0;6;0;0;0;0;0;0;0;0;0;0;0;0;0;0;0;0;0;10/7/22;10;JULIO;2022;;1;1;Nuevo;Optima condiciones;;
91;ADN-P-91;C1;ZONA 07;BOULEVARD DE LOS BUHONEROS;AVE. ALMA MATER;https://goo.gl/maps/qAW2nDS3XKhPzESx6;18.462774;-69.9199212;CIUDAD UNIVESITARIA;1066.47;514.28;1028.56;3190;3858;7048;Boulevard;0;0;1;0;0;17;11;0;3;0;0;1;1;34;34;179.3;0;0;5;1;0;0;0;0;0;0;0;1;0;0;0;0;0;0;15;0;10/7/22;10;JULIO;2022;;1;1;Nuevo;Optima condiciones;;
92;ADN-P-92;C1;ZONA 06;PARQUE ALTURAS  DE COSTA CRIOLLA;CALLE  1 ERA;https://goo.gl/maps/ubacwBXUuGWapGMr5;18.4357171;-69.9692672;ALTURAS COSTA CRIOLLA;740.98;35.08;70.16;13131;15438;28569;Parque;1;1;0;1;0;60;30;0;0;0;0;0;0;13;13;0;0;0;0;0;0;0;0;0;0;0;0;0;0;0;0;0;0;0;0;0;13/7/22;13;JULIO;2022;;1;1;Remozado;Optima condiciones;;
93;ADN-P-93;C1;ZONA 06;PARQUE COSTA CARIBE;CALLE RODRIGO DE TRIANA ;https://maps.app.goo.gl/LZSTursNMzU3gn4o7;18.4292021;-69.968805;COSTA CARIBE;1120.34;87.19;174.38;3275;3832;7107;Parque;1;0;2;1;0;12;6;0;3;4;2;0;0;25;25;51.2;0;4;6;0;1;0;0;0;0;0;0;0;0;0;0;0;0;0;0;0;20/7/22;20;JULIO;2022;;1;1;Remozado;Optima condiciones;;
94;ADN-P-94;C1;ZONA 06;PARQUE NORDESA I;CALLE NORDESA I;https://goo.gl/maps/FyWhuC12xvZ9Qw9d6;18.4340825;-69.9680073;NORDESA;310;51.44;102.88;3275;3832;7107;Parque;1;0;1;1;0;6;3;0;1;3;0;1;2;8;8;99;0;0;5;0;6;0;0;0;0;0;0;0;0;0;0;0;0;0;0;0;28/7/22;28;JULIO;2022;;1;1;Remozado;Optima condiciones;;
95;ADN-P-95;C3;ZONA 19;PARQUE MIRADOR ROSA DUARTE;CALLE TENIENTE  AMADO GARCIA;https://goo.gl/maps/LFN9dRskx9fY1ZYT7;18.4872843;-69.8867958;MEJORAMIENTO SOCIAL;11133.01;335.44;670.88;11104;11896;23000;Parque;1;1;1;0;0;0;0;0;0;0;0;0;0;26;26;0;0;0;0;0;0;0;0;0;0;0;0;0;0;0;0;0;0;0;0;0;3/8/22;3;AGOSTO;2022;;3;1;Nuevo;Optima condiciones;;
96;ADN-P-96;C1;ZONA 09;PARQUE LAS CANQUIÑAS SAN LAZARO (JOBO BONITO);CALLE PETER DIAZ;https://goo.gl/maps/TcwCqBJhsxSifWMn7;18.4748961;-69.889584;CIUDAD COLONIAL;562.31;94;188;2489;3046;5535;Parque;4;0;1;0;0;8;20;0;2;4;0;0;0;18;18;0;0;0;0;0;0;0;0;0;0;0;0;0;0;0;0;0;0;0;0;0;4/8/22;4;AGOSTO;2022;;1;1;Remozado;Optima condiciones;;
97;ADN-P-97;C1;ZONA 05;PARQUE SELENE DE BELLA VISTA;CALLE HIGUEMOTA ESQ SELENE;https://goo.gl/maps/N7mToL57BmxkAgAw6;18.4525685;-69.9385326;BELLA VISTA;678.64;99.56;199.12;7919;9701;17620;Parque;0;;4;0;0;0;2;0;0;0;0;0;0;1;0;43.8;0;3;0;0;0;0;0;0;0;0;0;0;0;0;0;0;0;0;0;0;5/8/22;5;AGOSTO;2022;;1;1;Nuevo;Optima condiciones;;
98;ADN-P-98;C3;ZONA 10;PARQUE SAN MARTIN Y SU ENTORNO;AVE SAN MARTIN;https://goo.gl/maps/uMmLcVwmLnxWT3Hy6;18.4821946;-69.9061699;VILLA JUANA;336.78;40.7;81.4;13747;14873;28620;Parque;0;0;0;0;0;0;0;0;0;0;0;0;0;16;16;0;0;0;0;0;0;0;0;0;0;0;0;0;0;0;0;0;0;0;0;0;7/8/22;7;AGOSTO;2022;;3;1;Nuevo;Optima condiciones;;
99;ADN-P-99;C1;ZONA 09;PLAZOLETA JOSEFA ORTIZ  DE DOMINGUEZ;AVENIDA MEXICO;https://goo.gl/maps/r7oQVsFqiD9jAh1t7;18.4769246;-69.8985822;SAN CARLOS;385.24;40.89;81.78;3737;4055;7792;Plaza;1;0;0;0;0;0;8;0;0;0;0;0;0;10;10;0;2;0;3;3;0;0;0;0;0;0;0;0;0;0;0;0;0;0;0;0;9/8/22;9;AGOSTO;2022;;1;1;Remozado;Optima condiciones;;
100;ADN-P-100;C1;ZONA 07;PARQUE ARBOLEDA;CALLE FANTINO FALCO;https://goo.gl/maps/PBd9hbLAV4sTnqYRA;18.4770397;-69.9230138;NACO;5179.99;332.48;664.96;8831;10027;18858;Parque;1;1;1;1;0;8;6;0;1;3;0;0;1;14;14;136.6;0;7;4;0;0;0;0;0;0;0;0;0;0;0;0;0;0;0;0;0;11/8/22;11;AGOSTO;2022;;1;1;Renovado;Optima condiciones;;
101;ADN-P-101;C3;ZONA 09;PARQUE VILLA FRANCISCA;AVENIDA MEXICO ESQ ISABEL LA CATOLICA;https://goo.gl/maps/LViETvrHWHcCDfNN9;18.4816041;-69.8876176;VILLA FRANCISCA;4155;228.43;456.86;7256;7711;14967;Parque;1;0;1;0;0;15;6;1;4;7;0;0;0;13;13;65;0;0;0;0;3;0;0;0;0;0;0;0;0;0;0;0;0;0;0;0;18/8/22;18;AGOSTO;2022;;3;1;Renovado;Optima condiciones;;
102;ADN-P-102;C1;ZONA 05;PARQUE  SELENE ESQ HATUEY DE BELLA VISTA;CALLE SELENE;https://goo.gl/maps/DcSYfHtyynxqfXhn7;18.4525636;-69.938882;BELLA VISTA;767.62;128.91;257.82;7919;9701;17620;Parque;1;1;2;1;0;16;10;0;8;5;0;0;0;27;5;112.40;0;0;2;0;1;0;0;0;0;0;0;0;0;0;0;0;0;0;0;0;9/9/22;9;SEPTIEMBRE;2022;;1;1;Nuevo;Optima condiciones;;
103;ADN-P-103;C1;ZONA 10;PARQUE DON BOSCO NORTE;AVE.27 DE FEBRERO;https://goo.gl/maps/d8CKrZydEEMvP7C87;18.4782252;-69.9049964;SAN JUAN BOSCO;1213.1;106.71;213.42;1806;1985;3791;Parque;1;0;0;0;0;8;4;0;1;0;0;0;0;31;31;123.93;0;0;0;0;0;0;0;0;0;0;0;0;0;0;0;0;0;0;0;0;16/9/22;16;SEPTIEMBRE;2022;;1;1;Remozado;Optima condiciones;;
104;ADN-P-104;C1;ZONA 05;PARQUE HELIOS DE BELLA VISTA;CALLE HELIOS;https://goo.gl/maps/ALyW7h6bwWWQrXMj8;18.4499567;-69.9483093;BELLA VISTA;918.97;158.49;316.98;7919;9701;17620;Parque;2;0;0;0;0;6;1;0;1;0;0;0;0;11;5;225.8;1;0;4;0;7;0;0;0;0;0;0;0;0;0;0;0;0;0;0;0;27/9/22;27;SEPTIEMBRE;2022;;1;1;Nuevo;Optima condiciones;;
105;ADN-P-105;C3;ZONA 19;PARQUE ALTAGRACIA FLORES(GUACHUPITA);AVE. FRANCISCO DEL ROSARIO SANCHEZ;https://goo.gl/maps/c7qoMJSHEL7bh4Ep9;18.4961526;-69.8854397;GUACHUPITA;585.66;43.09;86.18;22272;21821;44093;Parque;1;2;1;1;0;17;4;0;2;5;0;0;2;22;10;0;0;0;0;0;4;1;0;1;0;1;0;1;0;0;0;0;0;0;0;0;29/9/22;29;SEPTIEMBRE;2022;;3;1;Remozado;Optima condiciones;;
106;ADN-P-106;C1;ZONA 05;AREA RECUPERADA ROTONDA DE LOS CACICAZGOS PARTE 1;C/HATUEY ESQ GUARICANO;https://goo.gl/maps/YUNgptP5BMrQNXzt5;18.4375281;-69.9824997;LOS CACICASGOS;111.96;33.19;66.38;2650;3045;5695;Area Verde- recuperada;1;0;0;0;0;3;0;0;0;0;0;0;0;44;0;;0;0;0;0;0;0;0;0;0;0;0;0;0;0;0;0;0;0;0;0;10/10/22;10;OCTUBRE;2022;;1;2;Nuevo;Optima condiciones;;
107;ADN-P-107;C1;ZONA 05;AREA RECUPERADA ROTONDA DE LOS CACICAZGOS PARTE 2;C/HATUEY;https://goo.gl/maps/pbHCMKbfQpAmMoxn7;18.4392808;-69.9776574;LOS CACICASGOS;1244.47;323.19;646.38;2650;3045;5695;Area Verde- recuperada;1;0;0;0;0;3;0;0;0;0;0;0;0;7;0;;0;0;0;0;0;0;0;0;0;0;0;0;0;0;0;0;0;0;0;0;10/10/22;10;OCTUBRE;2022;;1;2;Nuevo;Optima condiciones;;
108;ADN-P-108;C1;ZONA 08;PARQUE DON BOSCO SUR;C/SAN JUAN BOSCO ESQ BOHECHIO;https://goo.gl/maps/wv6Zku81T12y5eom6;18.4764881;-69.9066324;SAN JUAN BOSCO;294.75;113.09;226.18;1806;1985;3791;Parque;1;1;2;0;0;7;6;0;1;5;0;0;0;9;9;36.1;0;0;2;0;0;0;0;0;0;0;0;0;0;0;0;0;0;0;0;0;19/11/22;19;NOVIEMBRE;2022;;1;1;Nuevo;Optima condiciones;;
109;ADN-P-109;C1;ZONA 08;PLAZA DON BOSCO SUR;C/SAN JUAN BOSCO ESQ BOHECHIO;https://goo.gl/maps/wv6Zku81T12y5eom6;18.4764881;-69.9066324;SAN JUAN BOSCO;112.91;44.18;88.36;1806;1985;3791;Plaza;1;1;0;0;0;2;2;0;0;0;0;0;0;1;43;0;0;2;0;0;0;0;0;0;0;0;0;0;0;0;0;0;0;0;0;0;19/11/22;19;NOVIEMBRE;2022;;1;1;Remozado;Optima condiciones;;
110;ADN-P-110;C1;ZONA 06;PARQUE CORAL;CALLE EL CORAL;https://goo.gl/maps/mqYXBgfZV9BrJ3Z88;18.4385207;-69.956532;URB.CORAL;1000;172.7;345.4;5014;5612;10626;Parque;1;1;4;0;0;8;9;0;3;0;0;2;0;13;13;234.3;0;0;0;0;0;0;0;0;0;0;0;0;0;0;0;0;0;0;0;0;24/11/22;24;NOVIEMBRE;2022;;1;1;Remozado;Optima condiciones;;
111;ADN-P-111;C1;ZONA 06;AREA VERDE EL CORAL;CALLE EL CORAL;https://goo.gl/maps/LYcpuEDKckjNoxCn8;18.4393923;-69.9551052;URB.CORAL;163.03;57.42;114.84;5014;5612;10626;Area Verde- recuperada;0;0;2;0;0;0;0;0;0;0;0;0;0;3;15;43.6;0;0;0;0;0;0;0;0;0;0;0;0;0;0;0;0;0;0;0;0;24/11/22;24;NOVIEMBRE;2022;;1;2;Nuevo;Optima condiciones;;
112;ADN-P-112;C1;ZONA 07;PARQUE VILLA NAVIDAD  2022;AVE.27 DE FEBRERO;https://goo.gl/maps/RBSpqhRx4Rmy2FDD6;18.4746236;-69.9200275;CENTRO OLIMPICO;1206.59;24.58;49.16;85;18;103;Parque;0;0;0;0;0;0;0;0;0;0;0;0;0;0;0;0;0;0;0;0;0;0;0;0;0;0;0;0;0;0;0;0;0;0;0;0;2/12/22;2;DICIEMBRE;2022;;1;1;Nuevo;Optima condiciones;;
113;ADN-P-113;C2;ZONA 02;PLAZOLETA ENCUENTRO ROTARIO POR LA PAZ;AVE.FITZGERALD KENNEDY;https://goo.gl/maps/uG6yaCmrNEado3kq8;18.4844271;-69.9414266;GALA;1765.15;224.29;448.58;1964;2426;4390;Plaza;0;0;0;0;0;0;0;0;0;0;0;0;0;7;9;0;0;0;0;0;0;0;0;0;0;0;0;0;0;0;0;0;0;0;0;0;5/12/22;5;DICIEMBRE;2022;;2;2;Nuevo;Optima condiciones;;
114;ADN-P-114;C1;ZONA 05;AREA VERDE CENTRAL   DE LA ROMULO BETANCOURT C/SAN PIO HASTA PROFESOR DE LOS ABOGADOS;AVE.ROMULO BETANCOURT HASTA LA SAN PIO;https://goo.gl/maps/whtnMmy2kzrRWA5M7;18.4453143;-69.9718352;LOS CACICASGOS;1045.89;514.01;1028.02;2650;3045;5695;Area Verde- recuperada;1;0;4;0;0;6;0;0;0;0;0;0;0;19;31;0;0;0;0;0;0;0;0;0;0;0;0;0;0;0;0;0;0;0;0;0;7/12/22;7;DICIEMBRE;2022;;1;2;Nuevo;Optima condiciones;;
115;ADN-P-115;C1;ZONA 05;AREA VERDE CENTRAL DE LA ROMULO BETANCOURT C/PROFESOR DE LOS ABOGADOS HASTA LUPERON;AVE.ROMULO BETANCOURT HASTA LA SAN PIO;https://goo.gl/maps/whtnMmy2kzrRWA5M7;18.4453143;-69.9718352;LOS CACICASGOS;1108.82;506.36;1012.72;2650;3045;5695;Area Verde- recuperada;1;0;4;0;0;5;0;0;0;0;6;0;0;26;37;0;0;0;0;0;0;0;0;0;0;0;0;0;0;0;0;0;0;0;0;0;7/12/22;7;DICIEMBRE;2022;;1;2;Nuevo;Optima condiciones;;
116;ADN-P-116;C1;ZONA 06;PARQUE HONDURAS;AVE. ITALIA;https://goo.gl/maps/zcueshmaNZdBSPND6;18.4493626;-69.9374695;GENERAL ANTONIO DUVERGE;3728;258.45;516.9;2347;2904;5251;Parque;1;1;4;1;0;52;17;3;8;11;0;0;1;24;28;91.30;0;5;10;0;0;1;0;0;1;0;0;0;0;0;0;0;0;0;0;0;7/12/22;7;DICIEMBRE;2022;;1;1;Remozado;Optima condiciones;;
117;ADN-P-117;C1;ZONA 07;AREA RECUPERADA  DE LA LINCOLN ESQ PEDRO HENRIQUEZ UREÑA DISESA;AVE.ABRAHAM LINCOLN ESQ PEDRO HENRRIQUEZ UREÑA;https://goo.gl/maps/maXMcsaS52NPhnP66;18.4640603;-69.9298502;LA JULIA;70;17.72;35.44;2703;3203;5906;Area Verde- recuperada;1;0;1;0;0;3;0;0;0;0;0;0;0;3;3;25;0;0;3;0;3;0;0;0;0;0;0;0;0;0;0;0;0;0;0;0;17/12/22;17;DICIEMBRE;2022;;1;2;Nuevo;Optima condiciones;;
118;ADN-P-118;C2;ZONA 01;AREA RECUPERA BARRIO 800 DE LOS RIOS;CALLE A;https://goo.gl/maps/eZAT54odnLXbVzQYA;18.4979371;-69.9662457;LAS 800;63.1;19.22;38.44;24591;26673;51264;Area Verde- recuperada;1;0;1;0;0;2;0;0;0;0;0;0;0;2;2;35;0;0;1;0;1;0;0;0;0;0;0;0;0;0;0;0;0;0;0;0;18/12/22;18;DICIEMBRE;2022;;2;2;Nuevo;Optima condiciones;;
119;ADN-P-119;C1;ZONA 06;PARQUE ALEXANDRA LAS AURORAS;C/A ESQ CALLE C;https://goo.gl/maps/YyjBJrgqhrutd3j69;18.4405684;-69.9547037;JARDINEZ DEL SUR;969.01;87.96;175.92;5014;5612;10626;Parque;2;0;2;18;0;3;0;0;2;6;0;0;0;7;17;0;0;0;0;0;3;0;0;0;0;0;0;0;0;0;0;0;0;0;0;0;23/12/22;23;DICIEMBRE;2022;;1;1;Renovado;Optima condiciones;;
120;ADN-P-120;C1;ZONA 07;PLAZOLETA LOS ROTARIOS;CALLE RAFAEL DAMIRON;https://goo.gl/maps/wpRHrUkjUKFPC5Mx6;18.4485353;-69.9243455;CENTRO DE LOS HEROES;50.18;120.12;240.24;30;35;65;Plaza;1;0;1;0;0;3;0;0;0;0;0;0;0;0;10;0;0;0;4;4;0;0;0;0;0;0;0;0;0;0;0;0;0;0;0;0;20/1/23;20;ENERO;2023;;1;1;Remozado;Optima condiciones;;
121;ADN-P-121;C1;ZONA 06;PARQUE ATLANTIDA;AVE GEORGE WASHINTONG;https://goo.gl/maps/dyr4yxeRAAaScVnv5;18.4268572;-69.983401;ATLANTIDA;7681;390.93;781.86;4426;5362;9788;Parque;0;0;0;1;0;0;4;0;0;0;0;0;0;0;15;0;0;1;0;0;2;0;0;0;0;0;0;0;0;0;0;0;0;0;0;0;26/1/23;26;ENERO;2023;;1;1;Remozado;Optima condiciones;;
122;ADN-P-122;C2;ZONA 01;AREA RECUPERADA CARREFOUR;AUTOPISTA DUARTE;https://goo.gl/maps/SVBh7dd8D5jTf91y8;18.4856643;-69.9776512;LOS RIOS;120;48.64;97.28;24591;26673;51264;Area Verde- recuperada;1;0;2;0;0;0;0;0;0;0;0;0;0;6;6;18.22;0;0;0;0;0;0;0;0;0;0;0;0;0;0;0;0;0;0;0;0;27/1/23;27;ENERO;2023;;2;2;Nuevo;Optima condiciones;;
123;ADN-P-123;C1;ZONA 05;AREA INFANTIL SEGUNDA ETAPA MIRADOR SUR;AVE CAONABO;https://goo.gl/maps/W124btRwRHCwKuRLA;18.450151;-69.9396542;MIRADOR SUR;787.01;0;0;2335;2687;5022;Parque;0;4;2;0;0;2;0;7;2;23;0;0;0;6;6;0;0;0;5;0;0;0;0;0;0;0;0;1;0;0;0;0;0;0;3;0;9/3/23;9;MARZO;2023;;1;2;Nuevo;Optima condiciones;;
124;ADN-P-124;C1;ZONA 05;AREA RECUPERADA/CALLE  RAFAEL ALBUQUERQUE;AVE SARASOTA;https://goo.gl/maps/8EKvaz9sS1Tu1sWr5;18.457329;-69.9369616;BELLA VISTA;562.12;273.95;547.9;7919;9701;17620;Area Verde- recuperada;1;0;1;0;0;2;0;0;0;0;0;0;0;6;6;68.37;0;0;0;0;0;0;0;0;0;0;0;0;0;0;0;0;0;0;0;0;10/3/23;10;MARZO;2023;;1;2;Nuevo;Optima condiciones;;
125;ADN-P-125;C1;ZONA 05;PASEO DE LOS INDIOS;AVE/MIRADOR SUR;https://goo.gl/maps/7tW2kCs67GBaT79L6;18.436088;-69.9805722;MIRADOR SUR;73318.14;0;0;2335;2687;5022;Parque;3;10;8;0;0;41;5;0;18;0;0;0;0;0;0;0;3;0;14;4;0;0;0;0;0;1;0;1;0;0;0;0;0;0;0;0;22/2/23;22;FEBRERO;2023;;1;1;Nuevo;Optima condiciones;;
126;ADN-P-126;C1;ZONA 05;PARQUE RENACIMIENTO;C/MIGUEL ANGEL ESQ C/BAYACAN;https://goo.gl/maps/eWz2txdJgKo7eS5TA;18.445626;-69.9660175;RENACIMIENTO;1969.01;86.79;173.58;3488;4531;8019;Parque;0;0;0;0;0;0;0;0;0;0;0;0;0;48;48;0;0;0;0;0;0;0;0;0;0;0;0;0;0;0;0;0;0;0;0;0;16/2/23;16;FEBRERO;2023;;1;1;Remozado;Optima condiciones;;
127;ADN-P-127;C1;ZONA 07;PLAZA FRANCISCO DE MIRANDA;AV. SIMON BOLIVAR;https://goo.gl/maps/Fps1XgGo6MVdF4xBA;18.4629584;-69.9285935;LA ESPERILLA;845.99;147.44;294.88;3663;4458;8121;Plaza;1;0;0;0;0;14;0;0;5;0;0;0;0;28;28;100.1;2;0;0;1;8;0;0;0;0;0;0;0;0;0;0;0;0;0;0;0;18/3/23;18;MARZO;2023;;1;1;Renovado;Optima condiciones;;
128;ADN-P-128;C1;ZONA 07;PLAZA DIASPORA DOMINICANA;AV. SIMON BOLIVAR;https://goo.gl/maps/ZaphTZhSHgqe8vKS9;18.462963;-69.9291742;LA JULIA;1867.21;115.12;230.24;2703;3203;5906;Plaza;1;0;0;0;0;24;0;0;9;0;0;19;0;0;40;244.5;0;9;6;1;16;0;0;0;0;0;0;0;0;1;0;0;0;0;0;0;18/3/23;18;MARZO;2023;;1;1;Renovado;Optima condiciones;;
129;ADN-P-129;C1;ZONA 05;ISLETA RECUPERADA VIMENCA SARASOTA;AVE SARASOTA ESQ PEDRO  A BOBEA;https://goo.gl/maps/JWLHMZAJZ6LgXUq2A;18.4562074;-69.9375766;BELLA VISTA;1589.31;424.11;848.22;7919;9701;17620;Area Verde- recuperada;2;0;0;0;0;6;0;0;0;0;0;0;0;0;60;270.89;0;0;0;0;0;0;0;0;0;0;0;0;0;0;0;0;0;0;0;0;22/3/23;22;MARZO;2023;;1;2;Nuevo;Optima condiciones;;
130;ADN-P-130;C1;ZONA 05;PLAZA  XXVIII CUMBRE  IBEROAMERICANA;AVE SARASOTA ESQ RECODO;https://goo.gl/maps/8EKvaz9sS1Tu1sWr5;18.457329;-69.9369616;EMBAJADORES;382.08;93.44;186.88;7919;9701;17620;Plaza;2;0;0;0;0;0;0;0;0;0;0;5;0;0;12;0;23;22;0;0;0;0;0;0;0;0;0;0;0;0;0;0;0;0;0;0;10/3/23;10;MARZO;2023;;1;1;Nuevo;Optima condiciones;;
131;ADN-P-131;C2;ZONA 02;PARQUE LAS VILLAS;CALLE ROSENDO ALVARES ESQ ERICK LEONARD;https://goo.gl/maps/KTZwGegNwBFcMH8y5;18.4855443;-69.9450402;LAS VILLAS;1191.81;96.22;192.44;6295;7445;13740;Parque;1;0;3;0;0;13;4;0;2;0;0;0;0;13;13;33.16;0;0;0;0;1;0;0;0;0;0;0;0;0;0;0;0;0;0;0;0;23/3/23;23;MARZO;2023;;2;1;Remozado;Optima condiciones;;
132;ADN-P-132;C1;ZONA 06;PARQUE MATA HAMBRE;AVE JOSE CONTRERAS ESQ TERCERA;https://goo.gl/maps/7DwKm4nbY8cPkY9x9;18.4581126;-69.9265785;MATA HAMBRE;385.7;41.65;83.3;3190;3858;7048;Parque;1;0;0;0;0;7;2;0;1;4;0;0;0;8;8;0;0;0;0;0;2;0;0;0;0;0;0;0;0;0;0;0;0;0;0;0;4/4/23;4;ABRIL;2023;;1;1;Nuevo;Optima condiciones;;
133;ADN-P-133;C1;ZONA 07;PLAZA SANTO TOMAS DE AQUINO;CALLE SANTO TOMAS DE AQUINO ESQ ARISTIDES FIALLO DE CABRAL;https://goo.gl/maps/qy1JZiwAVSycpKz87;18.4619683;-69.9126603;CIUDAD UNIVERSITARIA;1510.09;393.55;787.1;3190;3858;7048;Plaza;0;0;0;0;0;3;0;0;2;0;2;0;0;25;25;158.27;0;0;3;0;0;0;0;0;0;0;0;0;0;0;0;0;0;0;0;0;5/4/23;5;ABRIL;2023;;1;2;Nuevo;Optima condiciones;;
134;ADN-P-134;C1;ZONA 06;PARQUE URBANIZACIÓN INDEPENDENCIA;CALLE PALO HINCADO ESQ BOLIVAR;https://maps.app.goo.gl/GGZFU3CLxNgWTDTi7;18.4300229;-69.965738;URBANIZACION INDEPENDENCIA;12921;285.36;570.72;3275;3832;7107;Parque;1;2;6;1;0;34;11;2;4;8;0;0;0;72;72;822.8;0;6;0;0;2;1;0;0;0;0;0;0;0;0;0;0;0;0;0;0;12/4/23;12;ABRIL;2023;;1;1;Remozado;Optima condiciones;;
135;ADN-P-135;C1;ZONA 03;PARQUE RESTAURADORES;C/8 ESQ C/12;https://goo.gl/maps/z5syi2N13vihgmTK8;18.4584733;-69.9679732;RESTAURADORES;4083.25;309.03;618.06;5920;6795;12715;Parque;0;0;0;0;0;0;0;0;0;0;0;0;0;128;128;0;0;0;0;0;0;0;0;0;0;0;0;0;0;0;0;0;0;0;0;0;19/5/23;19;MAYO;2023;;1;1;Remozado;Optima condiciones;;
136;ADN-P-136;C2;ZONA 02;PARQUE LOS FARALLONES;CALLE PABLO 6TO;https://goo.gl/maps/j3V7qLv9vgyaaqJSA;18.4997396;-69.9313191;CRISTO REY;389;55.74;111.48;27448;29158;56606;Parque;1;2;1;0;0;10;7;2;1;5;0;0;0;5;5;29.8;0;0;1;0;0;0;0;0;0;0;0;0;0;0;0;0;0;0;0;0;5/5/23;5;MAYO;2023;;2;1;Renovado;Optima condiciones;;
137;ADN-P-137;C1;ZONA 07;PARQUE LA LIRA(RUBEN DARIO);AVE. ROBERTO PASTORIZA ESQ AVE. ABRAHAM LINCOLN;https://maps.app.goo.gl/7JAnHi1WybYLSUkLA;18.4691064;-69.931901;ENSANCHE PIANTINI;1673;176.02;352.04;6241;7284;13525;Parque;0;0;5;0;0;15;12;0;7;0;0;0;0;44;0;23;2;0;0;1;0;0;0;0;0;0;0;0;0;0;0;0;0;0;0;0;11/4/23;11;ABRIL;2023;;1;1;Remozado;Optima condiciones;;
138;ADN-P-138;C1;ZONA 08;PLAZA MAHATMA GANDHI;AVE SIMON BOLIVAR;https://maps.app.goo.gl/EZK1BvLbVeJ3Xftx6;18.4676068;-69.909001;ENSANCHE INDEPENDENCIA;289.2;98.32;196.64;6851;8231;15082;Parque;2;0;1;0;0;0;8;0;2;0;0;0;0;39;39;0;2;13;0;1;0;0;0;0;0;0;0;0;0;0;0;0;0;0;0;0;29/4/23;29;ABRIL;2023;;1;1;Nuevo;Optima condiciones;;
139;ADN-P-139;C1;ZONA 05;AREA RECUPERADA CACICAZGOS;CALLE GUARICO ESQ CALLE HATUEY;https://goo.gl/maps/dCJu7jkjR1GG3mnw9;18.4400633;-69.9755877;LOS CACICASGOS;124.55;32;64;2650;3045;5695;Area Verde- recuperada;0;0;0;0;0;2;0;0;0;0;0;0;0;1;1;35.78;0;0;0;0;0;0;0;0;0;0;0;0;0;0;0;0;0;0;0;0;10/3/23;10;MARZO;2023;;1;1;Nuevo;Optima condiciones;;
140;ADN-P-140;C1;ZONA 03;PARQUE PRADERAS;CALLE TEODORO CHASEAU;https://maps.app.goo.gl/bjYCbsLCMAn2rzoB7;18.4592091;-69.965964;LAS PRADERAS;77545.57;164.78;329.56;6098;7496;13594;Parque;0;0;0;0;0;0;0;0;0;0;0;0;0;0;0;0;0;0;0;0;0;0;0;0;0;0;0;0;0;0;0;0;0;0;0;0;22/5/23;22;MAYO;2023;;1;1;Remozado;Optima condiciones;;
141;ADN-P-141;C1;ZONA 06;PARQUE COSTA CORAL(PARQUE URBANIZACION CORAL);CALLE CORAL;https://maps.app.goo.gl/cao4EV9tw9aojUzW9;18.4394475;-69.956045;URB.CORAL;1066.83;86.1;172.2;5014;5612;10626;Parque;1;2;2;1;0;18;8;0;3;4;4;2;1;22;33;228.5;0;0;0;0;0;0;0;1;0;21;0;1;0;0;0;0;0;0;0;0;3/5/23;3;MAYO;2023;;1;1;Remozado;Optima condiciones;;
142;ADN-P-142;C1;ZONA 06;PARQUE DOMINICANOS EN EL EXTERIOR;AUTOPISTA 30 DE MAYO;https://goo.gl/maps/LhDuW4CGDHaFwz6o9;18.4340447;-69.9483884;URB.TROPICAL/DOMINICANO AUSENTES;3100;218.88;437.76;1459;1809;3268;Plaza;2;4;7;1;0;50;7;2;8;9;0;7;2;0;21;424.4;0;4;3;0;0;1;0;1;0;2;0;1;0;0;0;0;0;0;0;0;20/4/23;20;ABRIL;2023;;1;1;Remozado;Optima condiciones;;
143;ADN-P-143;C1;ZONA 03;AREA RECUPERADA GUSTAVO MEJIA RICART ESQ AVILES BLONDA(SALON ESTHER);AVE. GUSTAVO MEJIA RICART;https://maps.app.goo.gl/64zntm8rMraUQnPQ8;18.4701684;-69.945010;JULIETA MORALES;50;3.23;6.46;17748;20409;38157;Area Verde- recuperada;1;0;0;0;0;2;0;0;0;0;2;0;0;1;1;30.2;0;0;0;0;2;0;0;0;0;0;0;0;0;0;0;0;0;0;0;0;21/6/23;21;JUNIO;2023;;1;2;Nuevo;Optima condiciones;;
144;ADN-P-144;C1;ZONA 06;PARQUE URBANIZACION TROPICAL;C/PAYA;https://maps.app.goo.gl/WK6f5nBhz6ZsTAKH6;18.4300229;-69.965738;DOMINICANOS AUSENTES;3122.02;200.5;401;1459;1809;3268;Parque;1;3;5;1;0;23;9;2;4;7;2;3;2;27;30;348.6;0;4;0;0;0;1;0;0;0;2;0;2;0;0;0;0;0;0;0;0;15/6/23;15;JUNIO;2023;;1;1;Remozado;Optima condiciones;;
145;ADN-P-145;C1;ZONA 03;PARQUE ROSMIL;C/12 ESQ C/7;https://goo.gl/maps/yk768Az1oEPb3itt7;18.458879;-69.9678191;ROSMIL;2795.38;423.01;846.02;5920;6795;12715;Parque;1;4;0;0;0;28;11;2;4;4;0;0;1;35;40;400;0;0;0;0;0;1;0;0;0;0;0;0;0;0;0;0;0;0;0;0;21/6/23;21;JUNIO;2023;;1;1;Remozado;Optima condiciones;;
146;ADN-P-146;C3;ZONA 10;PARQUE PROFESORA SODIA ALCANTARA;AVE QUINTO CENTENARIO ESQ MAYI PEREZ;https://goo.gl/maps/5gS5vw5mtg4ziy9d8;18.4914387;-69.9023324;VILLA JUANA;910.46;96.94;193.88;13747;14873;28620;Parque;1;0;1;0;0;8;0;0;0;0;3;0;0;5;8;23.1;0;0;0;0;0;0;0;0;0;0;0;0;0;0;0;0;0;0;0;0;5/7/23;5;JULIO;2023;;3;1;Nuevo;Optima condiciones;;
147;ADN-P-147;C3;ZONA 10;PARQUE VILLA JUANA EN HOMENAJE A LEO CORPORAN;AVE. QUINTO CENTENARIO;https://goo.gl/maps/KmtthbvUMZdhfoiUA;18.4895402;-69.9048303;VILLA JUANA;2545.63;266.84;533.68;13747;14873;28620;Parque;1;2;2;0;0;24;9;2;3;5;3;0;1;16;19;60.13;0;0;1;0;7;0;0;0;0;0;0;0;0;0;0;0;0;0;0;0;31/7/23;31;JULIO;2023;;3;1;Remozado;Optima condiciones;;
148;ADN-P-148;C1;ZONA 03;PARQUE URBANIZACIÓN FERNANDEZ;CALLE PARABOLA ESQ ELIPSE;https://goo.gl/maps/MVnGgjYupLLqGNNh6;18.47599;-69.9467488;URBANIZACION FERNANDEZ;8658.8;199.91;399.82;7227;7824;15051;Parque;1;2;2;0;0;43;14;1;7;12;0;1;0;266;532;884.5;0;1;4;1;0;0;0;0;0;0;0;0;0;0;0;0;0;0;0;0;6/8/23;6;AGOSTO;2023;;1;1;Nuevo;Optima condiciones;;
149;ADN-P-149;C1;ZONA 03;PROYECTO AMBIENTAL FERNANDEZ;CALLE ELIPSE;https://goo.gl/maps/nDMFg19VhV1Yj3kG7;18.4764041;-69.9447326;URBANIZACION FERNANDEZ;9192.83;140.3;280.6;7227;7824;15051;Parque;0;0;0;0;0;0;0;0;0;0;0;0;0;0;400;0;0;0;0;0;0;0;0;0;0;0;0;0;0;0;0;0;0;0;0;0;6/8/23;6;AGOSTO;2023;;1;1;Nuevo;Optima condiciones;;
150;ADN-P-150;C1;ZONA 03;PLAZA PROYECTO AMBIENTAL;AVE. WINSTON CHURCHILL;https://goo.gl/maps/42R7gJgtWFt3fc619;18.4767668;-69.945314;URBANIZACION FERNANDEZ;537,68;73.98;147.96;7227;7824;15051;Plaza;0;0;0;0;0;0;0;0;0;0;0;0;0;0;25;0;0;0;0;0;0;0;0;0;0;0;0;0;0;0;0;0;0;0;0;0;6/8/23;6;AGOSTO;2023;;1;1;Nuevo;Optima condiciones;;
151;ADN-P-151;C1;ZONA 06;PARQUE RESIDENCIAL EL TUNEL;CALLE EL TUNEL;https://goo.gl/maps/emtARwg3EiAxwpwcA;18.443057;-69.9491532;URBANIZACION HONDURAS;150.45;11.44;22.88;2347;2904;5251;Parque;1;1;0;0;0;0;2;0;0;6;3;0;1;4;4;56.1;0;0;0;0;0;0;0;0;0;0;0;0;0;0;0;0;0;0;0;0;20/8/23;20;AGOSTO;2023;;1;1;Nuevo;Optima condiciones;;
152;ADN-P-152;C1;ZONA 06;PARQUE RESIDENCIAL GACELA;CALLE GACELA;https://maps.app.goo.gl/yjXRwjX5M33tbyrF9;18.4334777;-69.974880;URBANIZACION GACELA;2259.67;211.43;422.86;4771;5673;10444;Parque;1;2;2;1;0;44;9;2;2;5;3;1;4;30;30;325;0;0;0;0;0;0;0;0;0;0;0;0;0;0;0;0;0;0;0;0;5/9/23;5;SEPTIEMBRE;2023;;1;1;Remozado;Optima condiciones;;
153;ADN-P-153;C1;ZONA 06;PARQUE VELAZCASAS;AVE.GEORGE WASHINTONG;https://maps.app.goo.gl/fvcjehYNSQ93qVmz8;18.4277438;-69.9734177;URBANIZACION VELAZCASAS;4461;244.31;488.62;3275;3832;7107;Parque;1;6;1;1;0;64;13;6;6;7;0;5;2;41;6;426.6;0;4;0;0;5;1;0;1;0;2;0;1;0;0;0;0;0;0;0;0;17/10/23;17;OCTUBRE;2023;;1;1;Nuevo;Optima condiciones;;
154;ADN-P-154;C1;ZONA 03;PARQUE URBANIZACION ROSMIL;CALLE 4;https://maps.app.goo.gl/Gbkbo7euybUEJa8WA;18.4605109;-69.9698398;RESTAURADORES;8392;412.77;825.54;5920;6795;12715;Parque;0;0;0;0;0;0;0;0;0;0;2;0;0;79;79;;0;0;0;0;0;0;0;0;0;0;0;0;0;0;0;0;0;0;0;0;25/10/23;25;OCTUBRE;2023;;1;1;Nuevo;Optima condiciones;;
155;ADN-P-155;C2;ZONA 02;PUERTO ISABELA II;CALLE RAMON CACERES;https://maps.app.goo.gl/cJ2YFRTwKeNigSW79;18.5061321;-69.9189577;CRISTO REY;453;109.37;218.74;27448;29158;56606;Parque;1;1;0;0;0;10;6;1;2;3;3;0;0;7;7;0;0;0;0;0;0;0;0;0;0;0;0;0;0;0;0;0;0;0;0;0;15/11/23;15;NOVIEMBRE;2023;;2;1;Nuevo;Optima condiciones;;
156;ADN-P-156;C1;ZONA 06;PARQUE URB, BETA;CALLE MERCEDES OLIVO;https://maps.app.goo.gl/yuTEno3uA675oDbVA;18.4328471;-69.9585891;MIRAMAR;683.16;17.45;34.9;3275;3832;7107;Parque;1;10;1;1;0;26;8;2;3;4;0;1;1;23;23;174.2;0;0;0;0;0;0;0;0;0;0;0;0;0;0;0;0;0;0;0;0;29/11/23;29;NOVIEMBRE;2023;;1;1;Nuevo;Optima condiciones;;
157;ADN-P-157;C1;ZONA 07;PARQUE VILLA NAVIDAD  2023;AVE.27 DE FEBRERO;https://goo.gl/maps/RBSpqhRx4Rmy2FDD6;18.4746236;-69.9200275;CENTRO OLIMPICO;1206.59;0;0;85;18;103;Parque;0;0;0;0;0;0;0;0;0;0;10;0;0;0;0;;0;0;0;0;0;0;0;0;0;0;0;0;0;0;0;0;0;0;0;0;30/11/23;30;NOVIEMBRE;2023;;1;1;Nuevo;Optima condiciones;;
158;ADN-P-158;C2;ZONA 02;PARQUE CRISTO LIBRE;AVE. TIRADENTES ESQ CALLE D;https://maps.app.goo.gl/2pYkcvkWHDjEgD1Q8;18.4956654;-69.9317068;CRISTO REY;5726.01;278.79;557.58;27448;29158;56606;Parque;1;5;1;0;0;100;37;5;12;6;0;1;1;65;65;127;0;0;0;3;16;0;0;1;0;2;1;1;0;0;0;0;0;0;0;0;5/12/23;5;DICIEMBRE;2023;;2;1;Nuevo;Optima condiciones;;
159;ADN-P-159;C1;ZONA 06;PARQUE EL PEDREGAL;AVE.CAYETANO GERMOSEN ESQ DIAMANTE;https://maps.app.goo.gl/gihVgaawRvSAng2D8;18.4329651;-69.9832659;PEDREGAL;4909.57;221.22;442.44;4771;5673;10444;Parque;2;3;2;1;0;40;11;3;6;5;0;4;3;53;53;462.6;0;4;2;0;4;1;0;1;0;1;0;0;0;0;0;0;0;0;0;0;15/12/23;15;DICIEMBRE;2023;;1;1;Nuevo;Optima condiciones;;
160;ADN-P-160;C1;ZONA 07;PARQUE HISPANIOLA;AVE. GEORGE WASHINGTON ;https://maps.app.goo.gl/ZHX54UMKXC21xbsX8;18.4519021;-69.9241549;30 DE MAYO;47360.91;499.03;998.06;3180;3432;6612;Parque;1;0;3;0;0;18;0;0;6;0;0;0;0;35;35;350;0;0;0;2;0;0;0;0;0;0;0;0;0;0;0;0;0;0;0;0;21/12/23;21;DICIEMBRE;2023;;1;1;Nuevo;Optima condiciones;;
161;ADN-P-161;C1;ZONA 06;PARQUE VISTA MAR;AVE. GEORGE WASHINGTON ;https://maps.app.goo.gl/wDhTnpX2B7CUZAum7;18.437315;-69.9385029;30 DE MAYO;27436.23;251.43;502.86;3180;3432;6612;Parque;1;1;0;39;0;39;30;4;10;8;6;0;0;51;51;151;0;0;0;0;1;0;0;0;0;0;0;0;0;0;0;0;0;0;0;0;21/12/23;21;DICIEMBRE;2023;;1;1;Nuevo;Optima condiciones;;
162;ADN-P-162;C2;ZONA 32;PARQUE GIRASOLES;AVE, MONUMENTAL;https://maps.app.goo.gl/pVgxmFS5yAhFiy1Y7;18.5233068;-69.9926328;GIRASOLES;4724.98;271.39;542.78;26644;27830;54474;Parque;1;3;2;0;0;33;4;4;7;10;0;1;1;2;18;433.5;0;4;7;0;3;1;0;0;0;0;0;1;0;0;0;0;0;0;0;0;22/12/23;22;DICIEMBRE;2023;;2;1;Nuevo;Optima condiciones;;
163;ADN-P-163;C1;ZONA 06;PASEO MARITIMO;AVE. GEORGE WASHINGTON ;https://maps.app.goo.gl/Fsu8j8MFX6S8KTPW7;18.4366217;-69.9407672;30 DE MAYO;35378.42;834.05;1668.1;3180;3432;6612;Parque;2;2;1;1;0;142;51;0;6;5;0;1;16;57;0;2547.40;0;0;36;0;11;0;0;0;0;2;0;2;5;0;0;0;1;0;0;0;21/12/23;21;DICIEMBRE;2023;;1;1;Nuevo;Optima condiciones;;
164;ADN-P-164;C1;ZONA 07;AREA RECUPERA 27 DE FEBERO ESQ AVE MAXIMO GOMEZ;AVE 27 DE FEBRERO;https://maps.app.goo.gl/qN5t7s4nUYfaQHfd6;18.476183;-69.9143101;VERGEL;150;23.43;46.86;3663;4458;8121;Area Verde- recuperada;0;0;2;0;0;4;0;0;0;0;0;0;0;0;0;0;1;0;2;1;3;0;0;0;0;0;0;0;0;0;0;0;0;0;0;0;10/1/24;10;ENERO;2024;;1;2;Nuevo;Optima condiciones;;
165;ADN-P-165;C1;ZONA 06;PARQUE URBANIZACION ALFIMAR;CALLE CENTRAL;https://maps.app.goo.gl/2wTSHs8GMxggbhCa8;18.4379972;-69.9591783;ALFIMAR;789.46;115.73;231.46;5014;5612;10626;Parque;1;6;3;1;0;38;9;2;2;8;2;0;2;27;27;325.5;0;0;0;0;2;0;0;1;0;2;0;0;0;0;0;0;0;0;0;0;17/1/24;17;ENERO;2024;;1;1;Nuevo;Optima condiciones;;
166;ADN-P-166;C1;ZONA 05;PARQUE DE LA PAZ;AVE. CAYETANO GERMONSEN;https://maps.app.goo.gl/HmV3spBw64dk6B846;18.452012;-69.9366613;NUESTRA SEÑORA DE LA PAZ;2483.67;60.55;121.1;3074;3471;6545;Parque;1;3;0;1;0;15;5;1;2;6;0;0;0;20;20;128.10;0;6;0;0;1;1;0;0;0;0;0;0;0;0;0;0;0;0;0;0;7/3/24;7;MARZO;2024;;1;1;Nuevo;Optima condiciones;;
167;ADN-P-167;C1;ZONA 06;FARALLONES DE LA PAZ;AVE. CAYETANO GERMONSEN;https://maps.app.goo.gl/HmV3spBw64dk6B846;18.452012;-69.9366613;NUESTRA SEÑORA DE LA PAZ;1283.24;166.79;333.58;3074;3471;6545;Area Verde- recuperada;0;0;0;0;0;12;23;0;2;0;2;0;0;30;30;475.72;0;0;0;0;0;0;0;0;0;0;0;0;0;0;0;0;0;0;0;0;7/3/24;7;MARZO;2024;;1;1;Nuevo;Optima condiciones;;
168;ADN-P-168;C2;ZONA01;PARQUE BELICE;AVE JARDINEZ DE FONTABLEU;https://maps.app.goo.gl/Nezs17VyB2cXNTcy6;18.4853963;-69.9631611;GALA;2606.31;227.55;455.1;1964;2426;4390;Parque;1;1;1;1;0;13;3;3;3;4;3;1;1;32;32;200;0;0;1;0;0;1;0;0;0;1;0;1;0;0;0;0;0;0;0;0;20/3/24;20;MARZO;2024;;2;1;Nuevo;Optima condiciones;;
169;ADN-P-169;C1;ZONA 06;PARQUE VASCO NUÑEZ DE BALBOA;CALLE VASCO NUÑEZ;https://maps.app.goo.gl/EbGJeJn43xXs6Hf87;18.4310264;-69.9674263;COSTA CARIBE;1114.36;9.08;18.16;3275;3832;7107;Parque;1;4;1;1;0;33;6;0;3;3;2;2;0;17;17;239.6;0;0;0;0;1;0;0;0;0;0;0;0;0;0;0;0;0;0;0;0;7/5/24;7;MAYO;2024;;1;1;Nuevo;Optima condiciones;;
170;ADN-P-170;C1;ZONA 06;PARQUES LOS CORALES;CALLES LAS DOMADORAS ESQ RESPALDO LOS CORALES;https://maps.app.goo.gl/mEJhQcEGohH9FjDX8;18.4329687;-69.9586845;MIRAMAR;380.13;83.24;166.48;3275;3832;7107;Parque;1;3;2;0;0;4;5;0;1;5;0;0;0;12;12;133.6;0;0;0;0;0;0;0;0;0;0;0;0;0;0;0;0;0;0;0;0;31/5/24;31;MAYO;2024;;1;1;Nuevo;Optima condiciones;;
171;ADN-P-171;C1;ZONA 06;PLAZA REPUBLICA DEL PERU;AVE. GEORGE WASHINGTON ;https://maps.app.goo.gl/1N5zgeGWMN7AgWkj7;18.447674;-69.9258874;CENTRO DE LOS HEROES;1862.13;58.19;116.38;30;35;65;Plaza;1;0;1;0;0;12;18;0;4;0;2;0;0;27;27;148.5;2;0;2;1;0;0;0;0;0;0;0;0;0;0;0;0;0;0;0;0;14/6/24;14;JUNIO;2024;;1;1;Nuevo;Optima condiciones;;
172;ADN-P-172;C2;ZONA 01;PARQUE LA GUAYUBIN;AVE. CORONEL LORA FERNANDEZ ESQ GUAYUBIN;https://maps.app.goo.gl/zyadecLLMqAso54Z9;18.4865649;-69.9714533;LOS RIOS;1063.18;140.07;280.14;24591;26673;51264;Parque;1;2;2;0;0;14;6;0;1;3;2;1;0;10;63;48;0;0;2;0;0;0;0;0;0;0;0;0;0;0;0;0;0;0;0;0;29/6/24;29;JUNIO;2024;;2;1;Nuevo;Optima condiciones;;
173;ADN-P-173;C1;ZONA 08;PLAZA DE LA POESIA;AVE MAXIMO GOMEZ ESQ AVE MEXICO;https://maps.app.goo.gl/Akjev5jG9KvRpi4B9;18.473150;-69.911814;GAZCUE;633.04;128.01;256.02;6851;8231;15082;;0;0;0;0;0;0;0;0;0;0;3;0;0;3;22;0;0;0;0;0;0;0;0;0;0;0;0;0;0;0;0;0;0;0;0;0;20/8/24;20;AGOSTO;2024;;1;1;Nuevo;Optima condiciones;;
174;ADN-P-174;C2;ZONA 01;PARQUE VIA;CALLE VIA ;https://maps.app.goo.gl/3356AForeebFwtP96;18.4889671;-69.9688773;LOS RIOS;2984.28;277.89;555.78;24591;26673;51264;Parque;1;1;2;0;0;24;7;0;3;0;0;0;0;25;10;125.12;0;5;0;0;0;0;0;0;0;0;0;0;0;0;0;0;0;0;0;0;28/8/24;28;AGOSTO;2024;;2;1;Nuevo;Optima condiciones;;
175;ADN-P-175;C2;ZONA 01;MAJAGUAL AREA VERDE;CALLE VIA ESQ CALLE MAJAGUAL;https://maps.app.goo.gl/PSgUVUXn2tzgZB6Z9;18.4905427;-69.9678337;LOS RIOS;591.01;102.86;205.72;24591;26673;51264;Area Verde- recuperada;1;0;0;0;0;3;0;0;0;0;0;0;0;1;0;300;0;0;0;0;0;0;0;0;0;0;0;0;0;0;0;0;0;0;0;0;28/8/24;28;AGOSTO;2024;;2;2;Nuevo;Optima condiciones;;
176;ADN-P-176;C1;ZONA 05;PARQUE LUISA OZEMA PELLERANO(LOS DELFINES);AVE. SARASOTA ;https://maps.app.goo.gl/cjTGLUmeN3uyWNQa9;18.4476707;-69.9565883;MIRADOR SUR;5044;308.47;616.94;2335;2687;5022;Parque;0;0;0;0;0;0;0;0;0;0;0;0;0;63;18;;;;;;;0;0;0;0;0;0;0;0;0;0;0;0;0;0;0;10/9/24;10;SEPTIEMBRE;2024;;1;1;Remozado;Optima condiciones;;
177;ADN-P-177;C1;ZONA 06;PLAZA REPUBLICA DE GUATEMALA;AVE. GEORGE WASHINGTON ;https://maps.app.goo.gl/HQhV2ts9AWeCUtc29;18.4366149;-69.9418462;3O DE MAYO;275.74;25.33;50.66;3180;3432;6612;Plaza;1;0;0;0;0;0;25;0;4;0;0;0;0;7;3;49.6;2;0;0;1;1;0;0;0;0;0;0;0;0;0;0;0;0;0;0;0;26/9/24;26;SEPTIEMBRE;2024;;1;2;Nuevo;Optima condiciones;;
178;ADN-P-178;C1;ZONA 03;PARQUE BELISARIO CURIEL;CALLE BELISARIO CURIEL;https://maps.app.goo.gl/RHrd6NQM4bFq13NEA;18.4529876;-69.9719785;RESTAURADORES;2413.33;263.74;527.48;5920;6795;12715;Parque;0;0;0;0;0;0;0;0;0;0;0;0;0;49;6;0;0;0;0;0;0;0;0;0;0;0;0;0;0;0;0;0;0;0;0;0;10/10/24;10;OCTUBRE;2024;;1;1;Nuevo;Optima condiciones;;
179;ADN-P-179;C1;ZONA 06;PARQUE BUENOS AIRES DEL MIRADOR;C/CEFIRO  ESQ C/VIENTO MISTRAL;https://maps.app.goo.gl/tHY8itjz5jJbiB2a8;18.4338744;-69.9739777;BUENOS AIRES MIRADOR;3695;198.45;396.9;13131;15438;28569;Parque;1;6;1;2;0;68;16;4;8;9;0;6;2;31;8;744.2;0;6;0;0;1;1;1;1;0;2;0;1;0;1;0;0;0;0;0;0;22/10/24;22;OCTUBRE;2024;;1;1;Nuevo;Optima condiciones;;
180;ADN-P-180;C2;ZONA 01;PARQUE JARDINES DE LOS CEREZOS;C/JARDINES DE LOS CEREZOS ESQ C/BEGONIA;https://maps.app.goo.gl/wgJFtThhjR7FW8at8;18.4850868;-69.9557959;JARDINES DEL NORTE;5841.8;333.67;667.34;6295;7445;13740;Parque;0;0;0;0;0;0;0;0;0;0;0;0;0;0;10;0;0;0;0;0;0;0;0;0;0;0;0;0;0;0;0;0;0;0;0;0;8/11/24;8;NOVIEMBRE;2024;;2;1;Nuevo;Optima condiciones;;
181;ADN-P-181;C1;ZONA 06;PARQUE AESA;C/ 2DA ESQ C/1ERA;https://maps.app.goo.gl/TkkQck71ov2Cfkgn6;18.4260674;-69.9851586;URBANIZACION AESA;3760;135.93;271.86;4426;5362;9788;Parque;0;0;0;0;0;0;0;0;0;0;1;0;0;0;4;0;0;0;0;0;0;0;0;0;0;0;0;0;0;0;0;0;0;0;0;0;17/11/24;17;NOVIEMBRE;2024;;1;1;Remozado;Optima condiciones;;
182;ADN-P-182;C2;ZONA 01;PARQUE LOS BAMBU;CALLE EL BAMBU;https://maps.app.goo.gl/7qHg17CsLmQeyzad6;18.4936207;-69.9858327;DON HONORIO;720;153.96;307.92;1663;1694;3357;Parque;1;2;3;0;0;23;16;1;3;4;0;1;0;12;4;231.1;0;0;1;0;2;0;0;0;0;0;0;0;0;0;0;0;0;0;0;0;7/12/24;7;DICIEMBRE;2024;;2;1;Nuevo;Optima condiciones;;
183;ADN-P-183;C1;ZONA 06;PARQUE PASEO DE LOS HEROES;AVE. GEORGE WASHINGTON ;https://maps.app.goo.gl/hfn6vEfzNf3zVpu69;18.4462482;-69.9267893;CENTRO DE LOS HEROES;3873.96;316.17;632.34;30;35;65;Parque;1;0;1;0;0;30;0;0;0;0;0;0;2;35;21;650;0;0;0;0;0;0;0;0;0;0;0;0;0;0;0;0;0;0;5;0;8/12/24;8;DICIEMBRE;2024;;1;1;Nuevo;Optima condiciones;;
184;ADN-P-184;C2;ZONA 02;PARQUE AMBIENTAL LOS PROCERES;AV. LOS PROCERES ESQ J F KENNEDY;https://maps.app.goo.gl/dEAKQwMhGRFrjRoY9;18.4849992;-69.9432285;LOS PROCERES;6835.51;463.94;927.88;7504;8128;15632;Parque;0;1;0;0;0;3;5;0;1;0;0;0;0;4;21;0;0;0;0;0;1;0;0;0;0;0;0;0;0;0;0;0;0;0;0;0;10/12/24;10;DICIEMBRE;2024;;2;1;Remozado;Optima condiciones;;
185;ADN-P-185;C1;ZONA 03;AREA RECUPERADA CHARLES SUMMER;AVE. CHARLES SUMMER;https://maps.app.goo.gl/oUPNW39Wix1FXBBy7;18.4767423;-69.9532137;CARMELITA;45.17;3;6;;;0;Area Verde- recuperada;0;0;1;0;0;2;0;0;0;0;0;0;0;0;0;0;0;0;0;0;2;0;0;0;0;0;0;0;0;0;0;0;0;0;0;0;15/1/25;15;ENERO;2025;;1;2;Remozado;Optima condiciones;;
186;ADN-P-186;C3;ZONA 09;PARQUE  BARRIO CHINO;CALLE DUARTE;https://maps.app.goo.gl/eDWfzFVixkEpJTnj8;18.4791733;-69.8893297;VILLA FRANCISCA;538.89;88.95;177.9;7256;7711;14967;Parque;0;0;4;0;0;9;2;0;0;0;0;0;0;19;15;137.4;0;0;4;12;0;0;0;0;0;0;0;0;0;0;0;0;0;0;0;0;10/3/25;10;MARZO;2025;;3;1;Nuevo;Optima condiciones;;
187;ADN-P-187;C3;ZONA 09;PARQUE CONFUSIO;AVE MEXICO;https://maps.app.goo.gl/BtoeoWc44t6ZVwRTA;18.4783841;-69.8895851;VILLA FRANCISCA;2187.49;250.88;501.76;7256;7711;14967;Parque;0;0;0;;0;0;0;0;0;0;0;0;0;0;10;0;0;0;0;0;0;0;0;0;0;0;0;0;0;0;0;0;0;0;0;0;19/3/25;19;MARZO;2025;;3;1;Nuevo;Optima condiciones;;
188;ADN-P-188;C1;ZONA 07;PLAZA DE SANTO DOMINGO;AVE. GEORGE WASHINGTON ;https://maps.app.goo.gl/nL4YUyVThgXyUDUb9;18.4519021;-69.9241549;CENTRO DE LOS HEROES;12363.71;197.29;690.515;30;35;65;Parque;1;1;2;0;1;28;45;0;6;0;0;0;0;0;0;428.29;0;7;12;2;5;0;0;0;0;0;1;0;0;0;0;0;0;0;0;0;7/4/25;7;ABRIL;2025;;1;1;Nuevo;Optima condiciones;;
189;ADN-P-189;C3;ZONA 10;PARQUE CAONABO BEATO ;PUENTE HERMANO PINZON ESQ EXPRESSO 5TO CENTENARIO;https://maps.app.goo.gl/VPUu4HYNXzDYN11J9;18.4914877;-69.9014822;VILLA CONSUELO;809.58;210.34;420.68;9169;9796;18965;Parque;1;1;1;0;0;12;7;1;2;7;0;2;1;0;6;0;0;0;0;0;0;0;0;0;0;0;0;0;0;0;0;0;0;0;0;0;20/3/25;20;MARZO;2025;;3;1;Nuevo;Optima condiciones;;
190;ADN-P-190;C3;ZONA 10;AREA RECUPERA RAMON CACERES;EXPRESO 5TO CENTENARIO;https://maps.app.goo.gl/rjFcLyFgvtNbvrXVA;18.4928253;-69.8999647;VILLA CONSUELO;917.82;;0;9169;9796;18965;Area Verde- recuperada;0;0;1;0;0;5;2;0;1;0;0;0;0;3;0;0;0;0;0;0;2;0;0;0;0;0;0;0;0;0;0;0;0;0;0;0;20/3/25;20;MARZO;2025;;3;2;Nuevo;Optima condiciones;;
191;ADN-P-191;C1;ZONA 07;PARQUE ROMA;C/ROMA;https://maps.app.goo.gl/zpVJ8QQLvEKhjpiY8;18.4606933;-69.925092;LA JULIA;1404.06;222.13;444.26;2703;3203;5906;Parque;1;1;3;0;0;17;7;0;3;0;0;0;0;3;5;110;0;0;4;0;1;0;0;0;0;0;0;0;0;0;0;0;0;0;0;0;25/3/25;25;MARZO;2025;;1;1;Nuevo;Optima condiciones;;
192;ADN-P-192;C1;ZONA 06;AREA RECUPERA ENTRADA OFELIA;CALLE OFELIA;https://maps.app.goo.gl/6gLSGr9BHRk8Yoq9A;18.4343913;-69.9608297;OFELIA;59.08;8.63;17.26;13131;15438;28569;Area Verde- recuperada;0;1;2;0;0;3;0;0;1;0;0;0;0;4;13;24.1;0;0;0;0;2;0;0;0;0;0;0;0;0;0;0;0;0;0;0;0;7/4/25;7;ABRIL;2025;;1;2;Nuevo;Optima condiciones;;
193;ADN-P-193;C1;ZONA 01;PARQUE LINEAL LA YAGUITA;C/1ERA;https://maps.app.goo.gl/rtDa2K7nfB7B22gu8;18.482787;-69.9644358;LA YAGUITA;1145.79;280.67;561.34;6295;7445;13740;Parque;1;1;5;0;0;18;7;0;3;0;0;0;0;0;50;0;0;0;0;0;2;0;0;0;0;0;0;0;0;0;0;0;0;0;0;0;7/4/25;7;ABRIL;2025;;1;1;Nuevo;Optima condiciones;;
194;ADN-P-194;C1;ZONA 05;PARQUE RENACIMIENTO II;C/PLAZA ESQ C/SAN PIO;https://maps.app.goo.gl/veqxHXLe1Z9sBD567;18.4487866;-69.9734543;RENACIMIENTO;919.17;;0;3488;4531;8019;Parque;1;1;2;0;0;20;8;0;2;5;0;2;0;4;8;0;0;0;2;0;1;0;0;0;0;0;0;0;0;0;0;0;0;0;0;0;29/5/25;29;MAYO;2025;;1;1;Nuevo;Optima condiciones;;
195;ADN-P-195;C1;ZONA 05;AREA RECUPERADA RENACIMIENTOII;C/SAN PIO;https://maps.app.goo.gl/Wss853HL8pEV7JgY6;18.4473903;-69.9721387;RENACIMIENTO;452.82;75.93;151.86;3488;4531;8019;Area Verde- recuperada;0;0;0;0;0;19;0;0;0;0;0;0;0;5;0;226.14;0;0;0;0;0;0;0;0;0;0;0;0;0;0;0;0;0;0;0;0;29/5/25;29;MAYO;2025;;1;2;Nuevo;Optima condiciones;;
196;ADN-P-196;C2;ZONA 02;PARQUE RIVERAS DE LAS PALMAS;C/2DA;https://maps.app.goo.gl/fT2DC4RDFjx2zXzw9;18.4922383;-69.943835;REPARTO UNIVERSITARIO(COPLAN II);1,900.00;205.1;410.2;7504;8128;15632;PARQUE;1;1;2;0;0;30;5;0;3;0;5;0;1;70;10;700;0;1;0;0;1;0;0;0;0;0;0;0;0;0;0;0;0;0;0;0;26/6/25;26;JUNIO;2025;;2;1;Nuevo;Optima condiciones;;
197;ADN-P-197;C1;ZONA 05;PARQUE AREITO;CALLE CAMINI;https://maps.app.goo.gl/6AZkQAXhKSUCkg957;18.4374893;-69.9780886;LOS CACICASGOS;7260;300.07;600.14;2650;3045;5695;PARQUE;2;1;4;0;0;67;14;0;2;4;6;1;0;55;20;6500;0;0;2;0;3;0;0;0;0;0;0;0;0;0;0;0;0;0;0;0;17/7/25;17;JULIO;2025;;1;1;Nuevo;Optima condiciones;;
198;ADN-P-198;C1;ZONA 06;PARQUE LINEAL MATA HAMBRE;CALLE  PRIMERA;https://maps.app.goo.gl/AyRiBFSKcarQeYAn8;18.4554975;,-69.9270895;MATA HAMBRE;175;30;60;3190;3858;7048;Area Verde- recuperada;0;1;0;0;0;3;0;0;2;0;0;0;0;4;20;0;0;0;0;0;0;0;0;0;0;0;0;0;0;0;0;1;0;0;0;0;18/7/25;18;JULIO;2025;;1;2;Nuevo;Optima condiciones;;
199;ADN-P-199;C1;ZONA 06;PARQUE 30 DE MAYO ;CALLE CENTRAL ESQ ERCILIO MONTERO;https://maps.app.goo.gl/TQzJPjogHNmBPNSh8;18.439085;-69.936795;30 DE MAYO;860;91.92;183.84;3180;3432;6612;PARQUE;1;3;4;1;0;20;10;1;3;6;0;0;0;18;0;0;0;0;0;0;1;0;0;0;0;0;0;0;0;0;0;1;0;0;0;0;21/8/25;21;AGOSTO;2025;SEGUNDA ETAPA;1;1;Renovado;Optima condiciones;;
200;ADN-P-200;C1;ZONA 06;PARQUE OFELIA ;CALLE OFELIA;https://maps.app.goo.gl/17x7U8bsTQubzm5a9;18.4368211;-69.9622554;OFELIA;2096.98;112.62;236.5;13131;15438;28569;PARQUE;1;2;2;0;0;22;3;1;3;5;2;0;0;55;0;810.73;0;0;2;0;0;0;0;0;0;0;0;0;0;0;0;0;0;0;0;0;4/9/25;4;SEPTIEMBRE;2025;;1;1;Nuevo;Optima condiciones;;
201;ADN-P-201;C2;ZONA 32;CENTRO CULTURAL DIONICIO AMPARO;CALLE FUNDACION;https://maps.app.goo.gl/nnqmvSBW8fZe8LmEA;18.5199703;-69.9694383;FUNDACION;2491,11;12;18;4121;4290;8411;PARQUE;1;3;1;1;0;11;4;0;2;4;2;2;0;11;0;191,38;0;4;0;0;42;1;0;0;0;2;0;0;0;1;1;3;0;0;0;0;17/9/25;17;SEPTIEMBRE;2025;;2;1;Nuevo;Optima condiciones;;
202;ADN-P-202;C2;ZONA 01;PARQUE LA GLORIETA;CALLE ISABEL DE TORRES;https://maps.app.goo.gl/vmkqmj4sEBLwGuc17;18.5014881;-69.9680245;ARROYO HONDO;6160;0;0;20277;23099;43376;PARQUE;1;1;0;1;0;34;6;0;2;4;0;1;8;40;;465;0;0;0;0;3;0;0;0;0;0;0;0;0;0;1;0;0;166;0;0;1/10/25;1;OCTUBRE;2025;;2;1;Nuevo;Optima condiciones;;
203;ADN-P-203;C1;ZONA 05;PARQUE TAINO;CALLE CIBAO OESTE ;https://maps.app.goo.gl/haZbZszkLWFA7S5eA;18.4410649;-69.9726148;CACICAZGOS;7138;776.1;1552.2;2650;3045;5695;PARQUE;1;6;3;0;0;81;13;3;5;8;7;0;0;60;20;2000;0;1;9;1;0;0;0;0;1;0;0;0;0;0;0;1;0;358;0;0;11/11/25;11;NOVIEMBRE;2025;;1;1;Nuevo;Optima condiciones;;
204;ADN-P-204;C1;ZONA 03;PARQUE SAN GERÓNIMO;CALLE  C OESTE ESQ C TIMOTEO OGANDO;https://maps.app.goo.gl/BYG81c6f8irECguW7;18.4739955;-69.9665716;SAN GERONIMO;5517.27;227.21;863.39;3077;3784;6861;PARQUE;1;0;0;0;0;0;0;0;0;0;0;0;0;0;0;0;0;0;0;0;0;0;0;0;0;0;0;0;0;0;0;0;0;0;0;0;2/12/25;2;DICIEMBRE;2025;;1;1;Nuevo;Optima condiciones;;
205;ADN-P-205;C2;ZONA 39;PARQUE PUERTO ISABELA I;CALLE CAIMITO;https://maps.app.goo.gl/Ymo8aPenrmPBqtM58;18.507669;-69.9203875;PUERTO ISABELA;513.54;47.9;101.01;1651;1671;3322;PARQUE;1;1;2;0;0;11;5;0;2;5;1;0;0;6;0;0;0;0;0;0;0;0;0;0;0;0;0;0;0;0;0;1;0;44.7;0;0;11/12/25;11;DICIEMBRE;2025;;2;1;Nuevo;Optima condiciones;;
206;ADN-P-206;C2;ZONA 39;PLAZA PUERTO ISABELA I;CALLE GUAYACAN;https://maps.app.goo.gl/WUxDpXpQzrDLGoVB9;18.5079813;-69.920454;PUERTO ISABELA;1152.2;31.4;47.1;1651;1671;3322;PLAZA;0;0;1;0;0;8;2;0;0;0;0;0;0;4;6;118.8;0;0;0;0;1;0;0;0;0;0;0;0;0;0;0;1;0;0;0;0;11/12/25;11;DICIEMBRE;2025;;2;1;Nuevo;Optima condiciones;;
;;;;;;;;;;;;;;;;;;;;;;;;;;;;;;;;;;;;;;;;;;;;;;;;;;;;;;;;;;;;;;;
;;;;;;;;;;;;;;;;;;;;;;;;;;;;;;;;;;;;;;;;;;;;;;;;;;;;;;;;;;;;;;;
;;;;;;;;;;;;;;; 3,045,459.00 ;;;;;;;;;;;;;;;;;;;;;;;;;;;;;;;;;;;;;;;;;;;;;;;;
;;;;;;;;;;;;;;;;;;;;;;;;;;;;;;;;;;;;;;;;;;;;;;;;;;;;;;;;;;;;;;;
;;;;;;;;;;;;;;;;;;;;;;;;;;;;;;;;;;;;;;;;;;;;;;;;;;;;;;;;;;;;;;;
;;;;;;;;;;;;;;;;;;;;;;;;;;;;;;;;;;;;;;;;;;;;;;;;;;;;;;;;;;;;;;;
;;;;;;;;;;;;;;;;;;;;;;;;;;;;;;;;;;;;;;;;;;;;;;;;;;;;;;;;;;;;;;;
;;;151;73%;;;;;;;;;;;;;;;;;;;;;;;;;;;;;;;;;;;;;;;;;;;;;;;;;;;;;;;;;;;
;;;35;17%;;;;;;;;;;;;;;;;;;;;;;;;;;;;;;;;;;;;;;;;;;;;;;;;;;;;;;;;;;;
;;;20;10%;;;;;;;;;;;;;;;;;;;;;;;;;;;;;;;;;;;;;;;;;;;;;;;;;;;;;;;;;;;
;;;206;100%;;;;;;;;;;;;;;;;;;;;;;;;;;;;;;;;;;;;;;;;;;;;;;;;;;;;;;;;;;;